{"type":"FeatureCollection","features":[{"type":"Feature","id":1,"geometry":{"type":"Point","coordinates":[139.76432900000009,35.678609000000051]},"properties":{"OBJECTID":1,"name":"三菱UFJ銀行本店","lon":139.764329,"lat":35.678609000000002}},{"type":"Feature","id":2,"geometry":{"type":"Point","coordinates":[139.77024000000006,35.683130000000062]},"properties":{"OBJECTID":2,"name":"みずほ銀行 八重洲口支店","lon":139.77024,"lat":35.683129999999998}},{"type":"Feature","id":3,"geometry":{"type":"Point","coordinates":[139.76493200000004,35.684356000000037]},"properties":{"OBJECTID":3,"name":"三井住友信託銀行本店営業部","lon":139.76493199999999,"lat":35.684356000000001}},{"type":"Feature","id":4,"geometry":{"type":"Point","coordinates":[139.76466400000004,35.683710000000076]},"properties":{"OBJECTID":4,"name":"三菱UFJ信託銀行 本店","lon":139.76466400000001,"lat":35.683709999999998}},{"type":"Feature","id":5,"geometry":{"type":"Point","coordinates":[139.76353100000006,35.684745000000078]},"properties":{"OBJECTID":5,"name":"三井住友銀行東館ライジング・スクエア","lon":139.763531,"lat":35.684744999999999}},{"type":"Feature","id":6,"geometry":{"type":"Point","coordinates":[139.74294200000008,35.674407000000087]},"properties":{"OBJECTID":6,"name":"セブンイレブン 衆議院第一議員会館店","lon":139.742942,"lat":35.674407000000002}},{"type":"Feature","id":7,"geometry":{"type":"Point","coordinates":[139.76167500000008,35.694967000000076]},"properties":{"OBJECTID":7,"name":"きらぼし銀行 神田支店","lon":139.761675,"lat":35.694966999999998}},{"type":"Feature","id":8,"geometry":{"type":"Point","coordinates":[139.7647290000001,35.679845000000057]},"properties":{"OBJECTID":8,"name":"東京中央郵便局(銀座郵便局JPタワー内分室) ゆうちょ銀行 本店","lon":139.76472899999999,"lat":35.679845}},{"type":"Feature","id":9,"geometry":{"type":"Point","coordinates":[139.76233300000001,35.687637000000052]},"properties":{"OBJECTID":9,"name":"セブンイレブン AIM三井物産ビル店","lon":139.76233300000001,"lat":35.687637000000002}},{"type":"Feature","id":10,"geometry":{"type":"Point","coordinates":[139.74053800000002,35.692018000000076]},"properties":{"OBJECTID":10,"name":"麹町郵便局","lon":139.74053799999999,"lat":35.692017999999997}},{"type":"Feature","id":11,"geometry":{"type":"Point","coordinates":[139.76682500000004,35.694728000000055]},"properties":{"OBJECTID":11,"name":"みずほ銀行神田支店","lon":139.76682500000001,"lat":35.694727999999998}},{"type":"Feature","id":12,"geometry":{"type":"Point","coordinates":[139.76876400000003,35.697841000000039]},"properties":{"OBJECTID":12,"name":"神田郵便局","lon":139.768764,"lat":35.697840999999997}},{"type":"Feature","id":13,"geometry":{"type":"Point","coordinates":[139.75360499999999,35.670812000000069]},"properties":{"OBJECTID":13,"name":"セブンイレブン 日比谷パークフロント店","lon":139.75360499999999,"lat":35.670811999999998}},{"type":"Feature","id":14,"geometry":{"type":"Point","coordinates":[139.77074900000002,35.691820000000064]},"properties":{"OBJECTID":14,"name":"セブンイレブン 神田駅北口店","lon":139.770749,"lat":35.69182}},{"type":"Feature","id":15,"geometry":{"type":"Point","coordinates":[139.77118000000007,35.69105600000006]},"properties":{"OBJECTID":15,"name":"セブンイレブン 神田駅南口店","lon":139.77117999999999,"lat":35.691056000000003}},{"type":"Feature","id":16,"geometry":{"type":"Point","coordinates":[139.76201300000002,35.695255000000088]},"properties":{"OBJECTID":16,"name":"三井住友銀行神保町支店","lon":139.762013,"lat":35.695255000000003}},{"type":"Feature","id":17,"geometry":{"type":"Point","coordinates":[139.76575500000001,35.684150000000045]},"properties":{"OBJECTID":17,"name":"丸の内センタービル内郵便局","lon":139.76575500000001,"lat":35.684150000000002}},{"type":"Feature","id":18,"geometry":{"type":"Point","coordinates":[139.7628400000001,35.687702000000058]},"properties":{"OBJECTID":18,"name":"三井住友銀行三井物産ビル支店","lon":139.76284000000001,"lat":35.687702000000002}},{"type":"Feature","id":19,"geometry":{"type":"Point","coordinates":[139.76432900000009,35.687792000000059]},"properties":{"OBJECTID":19,"name":"KDDI大手町ビル内郵便局","lon":139.764329,"lat":35.687792000000002}},{"type":"Feature","id":20,"geometry":{"type":"Point","coordinates":[139.76849000000004,35.682289000000083]},"properties":{"OBJECTID":20,"name":"三井住友銀行 JR東京駅八重洲地下中央改札前出張所","lon":139.76849000000001,"lat":35.682288999999997}},{"type":"Feature","id":21,"geometry":{"type":"Point","coordinates":[139.76546900000005,35.686999000000071]},"properties":{"OBJECTID":21,"name":"北洋銀行東京支店","lon":139.765469,"lat":35.686999}},{"type":"Feature","id":22,"geometry":{"type":"Point","coordinates":[139.77906700000005,35.696317000000079]},"properties":{"OBJECTID":22,"name":"東神田郵便局","lon":139.779067,"lat":35.696317000000001}},{"type":"Feature","id":23,"geometry":{"type":"Point","coordinates":[139.741401,35.68503000000004]},"properties":{"OBJECTID":23,"name":"半蔵門駅前郵便局","lon":139.741401,"lat":35.685029999999998}},{"type":"Feature","id":24,"geometry":{"type":"Point","coordinates":[139.7407740000001,35.673969000000056]},"properties":{"OBJECTID":24,"name":"セブンイレブン 東急キャピトルタワー店","lon":139.74077399999999,"lat":35.673969}},{"type":"Feature","id":25,"geometry":{"type":"Point","coordinates":[139.77395799999999,35.699291000000073]},"properties":{"OBJECTID":25,"name":"セブンイレブン 秋葉原センタープレイス店","lon":139.77395799999999,"lat":35.699291000000002}},{"type":"Feature","id":26,"geometry":{"type":"Point","coordinates":[139.76233300000001,35.687637000000052]},"properties":{"OBJECTID":26,"name":"セブンイレブン Otemachi One タワ店","lon":139.76233300000001,"lat":35.687637000000002}},{"type":"Feature","id":27,"geometry":{"type":"Point","coordinates":[139.77058700000009,35.684055000000058]},"properties":{"OBJECTID":27,"name":"セブンイレブン 常盤橋タワー3F店","lon":139.77058700000001,"lat":35.684055000000001}},{"type":"Feature","id":28,"geometry":{"type":"Point","coordinates":[139.769631,35.693477000000087]},"properties":{"OBJECTID":28,"name":"神田駅前郵便局","lon":139.769631,"lat":35.693477000000001}},{"type":"Feature","id":29,"geometry":{"type":"Point","coordinates":[139.75614400000006,35.696237000000053]},"properties":{"OBJECTID":29,"name":"みずほ銀行九段支店","lon":139.75614400000001,"lat":35.696237000000004}},{"type":"Feature","id":30,"geometry":{"type":"Point","coordinates":[139.76453600000002,35.685321000000044]},"properties":{"OBJECTID":30,"name":"みずほ銀行 丸の内中央支店","lon":139.76453599999999,"lat":35.685321000000002}},{"type":"Feature","id":31,"geometry":{"type":"Point","coordinates":[139.76493200000004,35.684356000000037]},"properties":{"OBJECTID":31,"name":"三菱UFJ銀行新丸の内支店","lon":139.76493199999999,"lat":35.684356000000001}},{"type":"Feature","id":32,"geometry":{"type":"Point","coordinates":[139.75491900000009,35.695683000000088]},"properties":{"OBJECTID":32,"name":"城南信用金庫九段支店","lon":139.754919,"lat":35.695683000000002}},{"type":"Feature","id":33,"geometry":{"type":"Point","coordinates":[139.7647290000001,35.679845000000057]},"properties":{"OBJECTID":33,"name":"埼玉りそな銀行 東京支店","lon":139.76472899999999,"lat":35.679845}},{"type":"Feature","id":34,"geometry":{"type":"Point","coordinates":[139.766885,35.683938000000069]},"properties":{"OBJECTID":34,"name":"静岡銀行東京営業部","lon":139.766885,"lat":35.683937999999998}},{"type":"Feature","id":35,"geometry":{"type":"Point","coordinates":[139.73770000000002,35.691276000000073]},"properties":{"OBJECTID":35,"name":"りそな銀行 市ケ谷支店","lon":139.73769999999999,"lat":35.691276000000002}},{"type":"Feature","id":36,"geometry":{"type":"Point","coordinates":[139.763553,35.688662000000079]},"properties":{"OBJECTID":36,"name":"セブンイレブン 大手町カンファレンスセンター店","lon":139.763553,"lat":35.688662000000001}},{"type":"Feature","id":37,"geometry":{"type":"Point","coordinates":[139.76201300000002,35.695255000000088]},"properties":{"OBJECTID":37,"name":"三井住友銀行神田支店","lon":139.762013,"lat":35.695255000000003}},{"type":"Feature","id":38,"geometry":{"type":"Point","coordinates":[139.73407100000009,35.685625000000073]},"properties":{"OBJECTID":38,"name":"セブンイレブン 千代田二番町店","lon":139.734071,"lat":35.685625000000002}},{"type":"Feature","id":39,"geometry":{"type":"Point","coordinates":[139.77451300000007,35.696716000000038]},"properties":{"OBJECTID":39,"name":"神田須田町郵便局","lon":139.77451300000001,"lat":35.696716000000002}},{"type":"Feature","id":40,"geometry":{"type":"Point","coordinates":[139.7617590000001,35.696461000000056]},"properties":{"OBJECTID":40,"name":"小川町郵便局","lon":139.76175900000001,"lat":35.696460999999999}},{"type":"Feature","id":41,"geometry":{"type":"Point","coordinates":[139.76348000000007,35.68387000000007]},"properties":{"OBJECTID":41,"name":"みずほ信託銀行本店","lon":139.76347999999999,"lat":35.683869999999999}},{"type":"Feature","id":42,"geometry":{"type":"Point","coordinates":[139.7647290000001,35.679845000000057]},"properties":{"OBJECTID":42,"name":"ゆうちょ銀行本店","lon":139.76472899999999,"lat":35.679845}},{"type":"Feature","id":43,"geometry":{"type":"Point","coordinates":[139.770039,35.69296200000008]},"properties":{"OBJECTID":43,"name":"琉球銀行東京支店","lon":139.770039,"lat":35.692962000000001}},{"type":"Feature","id":44,"geometry":{"type":"Point","coordinates":[139.77103900000009,35.694068000000073]},"properties":{"OBJECTID":44,"name":"三菱UFJ銀行神田駅前支店","lon":139.771039,"lat":35.694068000000001}},{"type":"Feature","id":45,"geometry":{"type":"Point","coordinates":[139.74229000000003,35.676514000000054]},"properties":{"OBJECTID":45,"name":"りそな銀行 参議院支店","lon":139.74229,"lat":35.676513999999997}},{"type":"Feature","id":46,"geometry":{"type":"Point","coordinates":[139.77596900000003,35.699244000000078]},"properties":{"OBJECTID":46,"name":"りそな銀行 秋葉原支店(法人営業)","lon":139.775969,"lat":35.699244}},{"type":"Feature","id":47,"geometry":{"type":"Point","coordinates":[139.767923,35.692030000000045]},"properties":{"OBJECTID":47,"name":"武蔵野銀行東京支店","lon":139.767923,"lat":35.692030000000003}},{"type":"Feature","id":48,"geometry":{"type":"Point","coordinates":[139.76552700000002,35.698673000000042]},"properties":{"OBJECTID":48,"name":"【無人ATM】りそな銀行 お茶の水聖橋出張所 無人ATM","lon":139.76552699999999,"lat":35.698672999999999}},{"type":"Feature","id":49,"geometry":{"type":"Point","coordinates":[139.76257200000009,35.676613000000089]},"properties":{"OBJECTID":49,"name":"三井住友銀行丸ノ内支店","lon":139.76257200000001,"lat":35.676613000000003}},{"type":"Feature","id":50,"geometry":{"type":"Point","coordinates":[139.76412600000003,35.673800000000085]},"properties":{"OBJECTID":50,"name":"セブンイレブン 有楽町イトシア店","lon":139.764126,"lat":35.6738}},{"type":"Feature","id":51,"geometry":{"type":"Point","coordinates":[139.7647290000001,35.679845000000057]},"properties":{"OBJECTID":51,"name":"りそな銀行 東京営業部","lon":139.76472899999999,"lat":35.679845}},{"type":"Feature","id":52,"geometry":{"type":"Point","coordinates":[139.7442860000001,35.67853400000007]},"properties":{"OBJECTID":52,"name":"【無人ATM】りそな銀行 国立国会図書館出張所 無人ATM","lon":139.74428599999999,"lat":35.678533999999999}},{"type":"Feature","id":53,"geometry":{"type":"Point","coordinates":[139.75175200000001,35.695121000000086]},"properties":{"OBJECTID":53,"name":"りそな銀行 九段支店(法人個人営業/店頭サービス)","lon":139.75175200000001,"lat":35.695121}},{"type":"Feature","id":54,"geometry":{"type":"Point","coordinates":[139.76839000000007,35.696083000000044]},"properties":{"OBJECTID":54,"name":"りそな銀行 神田支店(法人営業)","lon":139.76839000000001,"lat":35.696083000000002}},{"type":"Feature","id":55,"geometry":{"type":"Point","coordinates":[139.76453600000002,35.685321000000044]},"properties":{"OBJECTID":55,"name":"株式会社みずほ銀行東京中央支店","lon":139.76453599999999,"lat":35.685321000000002}},{"type":"Feature","id":56,"geometry":{"type":"Point","coordinates":[139.74783400000001,35.700208000000089]},"properties":{"OBJECTID":56,"name":"【無人ATM】りそな銀行 飯田橋駅東口出張所 無人ATM","lon":139.74783400000001,"lat":35.700208000000003}},{"type":"Feature","id":57,"geometry":{"type":"Point","coordinates":[139.76982100000009,35.690979000000084]},"properties":{"OBJECTID":57,"name":"【無人ATM】りそな銀行 神田駅西口出張所 無人ATM","lon":139.76982100000001,"lat":35.690978999999999}},{"type":"Feature","id":58,"geometry":{"type":"Point","coordinates":[139.77581100000009,35.694923000000074]},"properties":{"OBJECTID":58,"name":"【無人ATM】りそな銀行 岩本町出張所 無人ATM","lon":139.775811,"lat":35.694923000000003}},{"type":"Feature","id":59,"geometry":{"type":"Point","coordinates":[139.74294200000008,35.674407000000087]},"properties":{"OBJECTID":59,"name":"りそな銀行 衆議院支店","lon":139.742942,"lat":35.674407000000002}},{"type":"Feature","id":60,"geometry":{"type":"Point","coordinates":[139.767515,35.679870000000051]},"properties":{"OBJECTID":60,"name":"【無人ATM】りそな銀行 東京駅八重洲北口出張所 無人ATM","lon":139.767515,"lat":35.679870000000001}},{"type":"Feature","id":61,"geometry":{"type":"Point","coordinates":[139.74345500000004,35.692222000000072]},"properties":{"OBJECTID":61,"name":"セブンイレブン 九段南大妻通り店","lon":139.74345500000001,"lat":35.692222000000001}},{"type":"Feature","id":62,"geometry":{"type":"Point","coordinates":[139.77283,35.698669000000052]},"properties":{"OBJECTID":62,"name":"【無人ATM】りそな銀行 アトレ秋葉原出張所(スマートATM) 無人ATM","lon":139.77283,"lat":35.698669000000002}},{"type":"Feature","id":63,"geometry":{"type":"Point","coordinates":[139.76486900000009,35.694768000000067]},"properties":{"OBJECTID":63,"name":"セブンイレブン 神田小川町2丁目店","lon":139.764869,"lat":35.694768000000003}},{"type":"Feature","id":64,"geometry":{"type":"Point","coordinates":[139.76664500000004,35.684016000000042]},"properties":{"OBJECTID":64,"name":"【無人ATM】りそな銀行 丸の内オアゾ出張所 無人ATM","lon":139.76664500000001,"lat":35.684016}},{"type":"Feature","id":65,"geometry":{"type":"Point","coordinates":[139.75078000000008,35.695028000000036]},"properties":{"OBJECTID":65,"name":"【無人ATM】りそな銀行 東京メトロ九段下駅九段下口出張所 無人ATM","lon":139.75077999999999,"lat":35.695028000000001}},{"type":"Feature","id":66,"geometry":{"type":"Point","coordinates":[139.75175200000001,35.695121000000086]},"properties":{"OBJECTID":66,"name":"りそな銀行 融資管理部(東京)","lon":139.75175200000001,"lat":35.695121}},{"type":"Feature","id":67,"geometry":{"type":"Point","coordinates":[139.737886,35.684524000000067]},"properties":{"OBJECTID":67,"name":"【無人ATM】りそな銀行 麹町日テレ通り出張所 無人ATM","lon":139.737886,"lat":35.684524000000003}},{"type":"Feature","id":68,"geometry":{"type":"Point","coordinates":[139.75775500000009,35.696435000000065]},"properties":{"OBJECTID":68,"name":"【無人ATM】りそな銀行 東京メトロ神保町駅東口出張所 無人ATM","lon":139.757755,"lat":35.696435000000001}},{"type":"Feature","id":69,"geometry":{"type":"Point","coordinates":[139.74079900000004,35.678774000000089]},"properties":{"OBJECTID":69,"name":"【無人ATM】りそな銀行 東京メトロ永田町駅出張所(スマートATM) 無人ATM","lon":139.74079900000001,"lat":35.678773999999997}},{"type":"Feature","id":70,"geometry":{"type":"Point","coordinates":[139.767515,35.679870000000051]},"properties":{"OBJECTID":70,"name":"セブン銀行 東京駅一番街 共同出張所","lon":139.767515,"lat":35.679870000000001}},{"type":"Feature","id":71,"geometry":{"type":"Point","coordinates":[139.76488900000004,35.696695000000034]},"properties":{"OBJECTID":71,"name":"セブン銀行 東京メトロ 千代田線 新御茶ノ水駅 共同出張所","lon":139.76488900000001,"lat":35.696694999999998}},{"type":"Feature","id":72,"geometry":{"type":"Point","coordinates":[139.75618400000008,35.694281000000046]},"properties":{"OBJECTID":72,"name":"セブンイレブン 千代田一ツ橋2丁目店","lon":139.75618399999999,"lat":35.694280999999997}},{"type":"Feature","id":73,"geometry":{"type":"Point","coordinates":[139.76582600000006,35.695235000000082]},"properties":{"OBJECTID":73,"name":"セブン銀行 都営地下鉄 新宿線 小川町駅 共同出張所","lon":139.765826,"lat":35.695234999999997}},{"type":"Feature","id":74,"geometry":{"type":"Point","coordinates":[139.77024000000006,35.683130000000062]},"properties":{"OBJECTID":74,"name":"セブン銀行 野村證券 東京支店 共同出張所","lon":139.77024,"lat":35.683129999999998}},{"type":"Feature","id":75,"geometry":{"type":"Point","coordinates":[139.75442700000008,35.67033500000008]},"properties":{"OBJECTID":75,"name":"セブン銀行 日比谷国際ビル 共同出張所","lon":139.75442699999999,"lat":35.670335000000001}},{"type":"Feature","id":76,"geometry":{"type":"Point","coordinates":[139.76194600000008,35.700196000000062]},"properties":{"OBJECTID":76,"name":"セブンイレブン 駿河台三楽病院店","lon":139.76194599999999,"lat":35.700195999999998}},{"type":"Feature","id":77,"geometry":{"type":"Point","coordinates":[139.76691900000003,35.690806000000066]},"properties":{"OBJECTID":77,"name":"セブンイレブン 内神田1丁目店","lon":139.766919,"lat":35.690806000000002}},{"type":"Feature","id":78,"geometry":{"type":"Point","coordinates":[139.76273200000003,35.681556000000057]},"properties":{"OBJECTID":78,"name":"セブンイレブン 丸の内郵船ビル店","lon":139.762732,"lat":35.681556}},{"type":"Feature","id":79,"geometry":{"type":"Point","coordinates":[139.73675300000002,35.683294000000046]},"properties":{"OBJECTID":79,"name":"セブンイレブン 千代田区麹町4丁目店","lon":139.73675299999999,"lat":35.683293999999997}},{"type":"Feature","id":80,"geometry":{"type":"Point","coordinates":[139.75834000000009,35.67240600000008]},"properties":{"OBJECTID":80,"name":"セブンイレブン 7FS内幸町1丁目店","lon":139.75834,"lat":35.672406000000002}},{"type":"Feature","id":81,"geometry":{"type":"Point","coordinates":[139.76752400000009,35.689790000000073]},"properties":{"OBJECTID":81,"name":"セブンイレブン 内神田2丁目店","lon":139.76752400000001,"lat":35.689790000000002}},{"type":"Feature","id":82,"geometry":{"type":"Point","coordinates":[139.74564400000008,35.67083000000008]},"properties":{"OBJECTID":82,"name":"セブンイレブン 特許庁店","lon":139.745644,"lat":35.670830000000002}},{"type":"Feature","id":83,"geometry":{"type":"Point","coordinates":[139.73750100000007,35.677174000000036]},"properties":{"OBJECTID":83,"name":"セブンイレブン 赤坂東急プラザ店","lon":139.73750100000001,"lat":35.677174000000001}},{"type":"Feature","id":84,"geometry":{"type":"Point","coordinates":[139.74601300000006,35.699676000000068]},"properties":{"OBJECTID":84,"name":"セブンイレブン 千代田大神宮通り店","lon":139.746013,"lat":35.699675999999997}},{"type":"Feature","id":85,"geometry":{"type":"Point","coordinates":[139.77521200000001,35.697767000000056]},"properties":{"OBJECTID":85,"name":"セブン銀行 東京メトロ 日比谷線 秋葉原駅 共同出張所","lon":139.77521200000001,"lat":35.697766999999999}},{"type":"Feature","id":86,"geometry":{"type":"Point","coordinates":[139.76577100000009,35.689376000000038]},"properties":{"OBJECTID":86,"name":"セブン銀行 コープビル 共同出張所","lon":139.765771,"lat":35.689376000000003}},{"type":"Feature","id":87,"geometry":{"type":"Point","coordinates":[139.77587100000005,35.700273000000038]},"properties":{"OBJECTID":87,"name":"セブンイレブン 神田和泉町店","lon":139.775871,"lat":35.700273000000003}},{"type":"Feature","id":88,"geometry":{"type":"Point","coordinates":[139.732754,35.684196000000043]},"properties":{"OBJECTID":88,"name":"セブンイレブン 上智大学店","lon":139.732754,"lat":35.684196}},{"type":"Feature","id":89,"geometry":{"type":"Point","coordinates":[139.74043400000005,35.679123000000061]},"properties":{"OBJECTID":89,"name":"セブンイレブン 千代田平河町2丁目店","lon":139.74043399999999,"lat":35.679122999999997}},{"type":"Feature","id":90,"geometry":{"type":"Point","coordinates":[139.77894700000002,35.693148000000065]},"properties":{"OBJECTID":90,"name":"セブン銀行 都営地下鉄 新宿線 岩本町駅 共同出張所","lon":139.77894699999999,"lat":35.693148000000001}},{"type":"Feature","id":91,"geometry":{"type":"Point","coordinates":[139.76409000000001,35.676432000000034]},"properties":{"OBJECTID":91,"name":"セブン銀行 東京国際フォーラム 共同出張所","lon":139.76409000000001,"lat":35.676431999999998}},{"type":"Feature","id":92,"geometry":{"type":"Point","coordinates":[139.7625220000001,35.680169000000035]},"properties":{"OBJECTID":92,"name":"セブン銀行 丸の内仲通りビル 共同出張所","lon":139.76252199999999,"lat":35.680168999999999}},{"type":"Feature","id":93,"geometry":{"type":"Point","coordinates":[139.74211100000002,35.687398000000087]},"properties":{"OBJECTID":93,"name":"セブンイレブン 千代田一番町店","lon":139.74211099999999,"lat":35.687398000000002}},{"type":"Feature","id":94,"geometry":{"type":"Point","coordinates":[139.77640500000007,35.697883000000047]},"properties":{"OBJECTID":94,"name":"セブンイレブン 秋葉原昭和通り店","lon":139.77640500000001,"lat":35.697882999999997}},{"type":"Feature","id":95,"geometry":{"type":"Point","coordinates":[139.76793700000007,35.697582000000068]},"properties":{"OBJECTID":95,"name":"セブンイレブン 神田淡路町ワテラス店","lon":139.76793699999999,"lat":35.697581999999997}},{"type":"Feature","id":96,"geometry":{"type":"Point","coordinates":[139.7637840000001,35.680976000000044]},"properties":{"OBJECTID":96,"name":"セブン銀行 丸の内ビルディング 共同出張所","lon":139.76378399999999,"lat":35.680976000000001}},{"type":"Feature","id":97,"geometry":{"type":"Point","coordinates":[139.74229000000003,35.676514000000054]},"properties":{"OBJECTID":97,"name":"セブンイレブン 参議院議員会館店","lon":139.74229,"lat":35.676513999999997}},{"type":"Feature","id":98,"geometry":{"type":"Point","coordinates":[139.74143600000002,35.696228000000076]},"properties":{"OBJECTID":98,"name":"セブンイレブン 法政大学市ヶ谷キャンパス店","lon":139.74143599999999,"lat":35.696227999999998}},{"type":"Feature","id":99,"geometry":{"type":"Point","coordinates":[139.77808900000002,35.693254000000081]},"properties":{"OBJECTID":99,"name":"セブンイレブン 千代田岩本町2丁目店","lon":139.77808899999999,"lat":35.693254000000003}},{"type":"Feature","id":100,"geometry":{"type":"Point","coordinates":[139.76493200000004,35.684356000000037]},"properties":{"OBJECTID":100,"name":"セブンイレブン 丸の内永楽ビル店","lon":139.76493199999999,"lat":35.684356000000001}},{"type":"Feature","id":101,"geometry":{"type":"Point","coordinates":[139.7406830000001,35.673183000000051]},"properties":{"OBJECTID":101,"name":"セブン銀行 山王パークタワー 共同出張所","lon":139.74068299999999,"lat":35.673183000000002}},{"type":"Feature","id":102,"geometry":{"type":"Point","coordinates":[139.76122100000009,35.684500000000071]},"properties":{"OBJECTID":102,"name":"セブンイレブン 丸の内パレスビル店","lon":139.76122100000001,"lat":35.6845}},{"type":"Feature","id":103,"geometry":{"type":"Point","coordinates":[139.76976100000002,35.68322500000005]},"properties":{"OBJECTID":103,"name":"セブン銀行 丸の内トラストタワーN館 共同出張所","lon":139.76976099999999,"lat":35.683225}},{"type":"Feature","id":104,"geometry":{"type":"Point","coordinates":[139.73347699999999,35.684415000000058]},"properties":{"OBJECTID":104,"name":"セブンイレブン 麹町5丁目店","lon":139.73347699999999,"lat":35.684415000000001}},{"type":"Feature","id":105,"geometry":{"type":"Point","coordinates":[139.76485500000001,35.686398000000054]},"properties":{"OBJECTID":105,"name":"セブン銀行 東京メトロ 半蔵門線 大手町駅 共同出張所","lon":139.76485500000001,"lat":35.686397999999997}},{"type":"Feature","id":106,"geometry":{"type":"Point","coordinates":[139.74261000000001,35.675495000000069]},"properties":{"OBJECTID":106,"name":"セブンイレブン 衆議院第二議員会館店","lon":139.74261000000001,"lat":35.675494999999998}},{"type":"Feature","id":107,"geometry":{"type":"Point","coordinates":[139.73614300000008,35.692623000000083]},"properties":{"OBJECTID":107,"name":"セブン銀行 東京メトロ 有楽町線 市ケ谷駅 共同出張所","lon":139.736143,"lat":35.692622999999998}},{"type":"Feature","id":108,"geometry":{"type":"Point","coordinates":[139.76033100000006,35.675594000000046]},"properties":{"OBJECTID":108,"name":"セブン銀行 東京メトロ 日比谷線 日比谷駅 共同出張所","lon":139.76033100000001,"lat":35.675593999999997}},{"type":"Feature","id":109,"geometry":{"type":"Point","coordinates":[139.767922,35.695297000000039]},"properties":{"OBJECTID":109,"name":"セブンイレブン 神田須田町1丁目店","lon":139.767922,"lat":35.695296999999997}},{"type":"Feature","id":110,"geometry":{"type":"Point","coordinates":[139.77227700000003,35.702705000000037]},"properties":{"OBJECTID":110,"name":"セブンイレブン 外神田4丁目店","lon":139.772277,"lat":35.702705000000002}},{"type":"Feature","id":111,"geometry":{"type":"Point","coordinates":[139.73407100000009,35.685625000000073]},"properties":{"OBJECTID":111,"name":"セブン銀行 イトーヨーカドー 本部店 共同出張所","lon":139.734071,"lat":35.685625000000002}},{"type":"Feature","id":112,"geometry":{"type":"Point","coordinates":[139.75775500000009,35.696435000000065]},"properties":{"OBJECTID":112,"name":"セブンイレブン 神田神保町2丁目店","lon":139.757755,"lat":35.696435000000001}},{"type":"Feature","id":113,"geometry":{"type":"Point","coordinates":[139.77245600000003,35.690601000000072]},"properties":{"OBJECTID":113,"name":"セブンイレブン 千代田鍛冶町1丁目店","lon":139.77245600000001,"lat":35.690601000000001}},{"type":"Feature","id":114,"geometry":{"type":"Point","coordinates":[139.75487100000009,35.697590000000048]},"properties":{"OBJECTID":114,"name":"セブンイレブン 神田専大通り店","lon":139.75487100000001,"lat":35.697589999999998}},{"type":"Feature","id":115,"geometry":{"type":"Point","coordinates":[139.77170599999999,35.700225000000046]},"properties":{"OBJECTID":115,"name":"セブン銀行 タイトーステーション 秋葉原店 共同出張所","lon":139.77170599999999,"lat":35.700225000000003}},{"type":"Feature","id":116,"geometry":{"type":"Point","coordinates":[139.76433100000008,35.674890000000062]},"properties":{"OBJECTID":116,"name":"セブン銀行 東京交通会館ビル 共同出張所","lon":139.764331,"lat":35.674889999999998}},{"type":"Feature","id":117,"geometry":{"type":"Point","coordinates":[139.76057900000001,35.692134000000067]},"properties":{"OBJECTID":117,"name":"セブンイレブン 神田錦町千代田通り店","lon":139.76057900000001,"lat":35.692134000000003}},{"type":"Feature","id":118,"geometry":{"type":"Point","coordinates":[139.76073600000007,35.69244800000007]},"properties":{"OBJECTID":118,"name":"セブンイレブン 神田錦町3丁目店","lon":139.76073600000001,"lat":35.692447999999999}},{"type":"Feature","id":119,"geometry":{"type":"Point","coordinates":[139.76468900000009,35.697153000000071]},"properties":{"OBJECTID":119,"name":"セブンイレブン AIM三井住友海上火災保険新館店","lon":139.764689,"lat":35.697153}},{"type":"Feature","id":120,"geometry":{"type":"Point","coordinates":[139.76599400000009,35.681425000000047]},"properties":{"OBJECTID":120,"name":"セブン銀行 JR東京駅 グランスタ八重北 共同出張所","lon":139.76599400000001,"lat":35.681424999999997}},{"type":"Feature","id":121,"geometry":{"type":"Point","coordinates":[139.76468900000009,35.685891000000083]},"properties":{"OBJECTID":121,"name":"セブン銀行 大手町ファーストスクエア 共同出張所","lon":139.764689,"lat":35.685890999999998}},{"type":"Feature","id":122,"geometry":{"type":"Point","coordinates":[139.76361100000008,35.684132000000034]},"properties":{"OBJECTID":122,"name":"セブン銀行 都営地下鉄 三田線 大手町駅 共同出張所","lon":139.763611,"lat":35.684131999999998}},{"type":"Feature","id":123,"geometry":{"type":"Point","coordinates":[139.76057600000001,35.69424900000007]},"properties":{"OBJECTID":123,"name":"セブン銀行 神保町三井ビルディング 共同出張所","lon":139.76057599999999,"lat":35.694248999999999}},{"type":"Feature","id":124,"geometry":{"type":"Point","coordinates":[139.76765,35.695811000000049]},"properties":{"OBJECTID":124,"name":"セブン銀行 東京メトロ 丸ノ内線 淡路町駅 共同出張所","lon":139.76765,"lat":35.695810999999999}},{"type":"Feature","id":125,"geometry":{"type":"Point","coordinates":[139.764409,35.682587000000069]},"properties":{"OBJECTID":125,"name":"セブンイレブン 新丸ビル店","lon":139.764409,"lat":35.682586999999998}},{"type":"Feature","id":126,"geometry":{"type":"Point","coordinates":[139.75545600000009,35.669545000000085]},"properties":{"OBJECTID":126,"name":"セブン銀行 都営地下鉄 三田線 内幸町駅 共同出張所","lon":139.75545600000001,"lat":35.669544999999999}},{"type":"Feature","id":127,"geometry":{"type":"Point","coordinates":[139.75576700000011,35.699940000000083]},"properties":{"OBJECTID":127,"name":"セブンイレブン 千代田三崎町白山通り店","lon":139.75576699999999,"lat":35.699939999999998}},{"type":"Feature","id":128,"geometry":{"type":"Point","coordinates":[139.75908800000002,35.695544000000041]},"properties":{"OBJECTID":128,"name":"セブンイレブン 神田すずらん通り店","lon":139.75908799999999,"lat":35.695543999999998}},{"type":"Feature","id":129,"geometry":{"type":"Point","coordinates":[139.764409,35.682587000000069]},"properties":{"OBJECTID":129,"name":"セブンイレブン 新丸ビルフロアナイン店","lon":139.764409,"lat":35.682586999999998}},{"type":"Feature","id":130,"geometry":{"type":"Point","coordinates":[139.77411400000005,35.699784000000079]},"properties":{"OBJECTID":130,"name":"セブンイレブン 秋葉原駅北店","lon":139.774114,"lat":35.699784000000001}},{"type":"Feature","id":131,"geometry":{"type":"Point","coordinates":[139.73848800000007,35.683120000000088]},"properties":{"OBJECTID":131,"name":"セブンイレブン 千代田区麹町3丁目店","lon":139.73848799999999,"lat":35.683120000000002}},{"type":"Feature","id":132,"geometry":{"type":"Point","coordinates":[139.73407100000009,35.685625000000073]},"properties":{"OBJECTID":132,"name":"セブンイレブン 7FSガーデンビル店","lon":139.734071,"lat":35.685625000000002}},{"type":"Feature","id":133,"geometry":{"type":"Point","coordinates":[139.74160900000004,35.686832000000038]},"properties":{"OBJECTID":133,"name":"セブン銀行 東京メトロ 半蔵門線 半蔵門駅 共同出張所","lon":139.74160900000001,"lat":35.686832000000003}},{"type":"Feature","id":134,"geometry":{"type":"Point","coordinates":[139.766885,35.683938000000069]},"properties":{"OBJECTID":134,"name":"セブン銀行 東京メトロ 丸ノ内線 東京駅 共同出張所","lon":139.766885,"lat":35.683937999999998}},{"type":"Feature","id":135,"geometry":{"type":"Point","coordinates":[139.76737200000002,35.678963000000067]},"properties":{"OBJECTID":135,"name":"セブンイレブン リクルートサウスタワー店","lon":139.76737199999999,"lat":35.678963000000003}},{"type":"Feature","id":136,"geometry":{"type":"Point","coordinates":[139.75059400000009,35.695768000000044]},"properties":{"OBJECTID":136,"name":"セブンイレブン 北の丸スクエア店","lon":139.75059400000001,"lat":35.695768000000001}},{"type":"Feature","id":137,"geometry":{"type":"Point","coordinates":[139.76894400000003,35.691203000000087]},"properties":{"OBJECTID":137,"name":"セブン銀行 エポスカード ATMコーナー神田 共同出張所","lon":139.768944,"lat":35.691203000000002}},{"type":"Feature","id":138,"geometry":{"type":"Point","coordinates":[139.75050900000008,35.700406000000044]},"properties":{"OBJECTID":138,"name":"セブンイレブン KDDI本社店","lon":139.75050899999999,"lat":35.700406000000001}},{"type":"Feature","id":139,"geometry":{"type":"Point","coordinates":[139.77075200000002,35.699074000000053]},"properties":{"OBJECTID":139,"name":"セブン銀行 タイトーHey 秋葉原店 共同出張所","lon":139.77075199999999,"lat":35.699074000000003}},{"type":"Feature","id":140,"geometry":{"type":"Point","coordinates":[139.76575500000001,35.684150000000045]},"properties":{"OBJECTID":140,"name":"セブン銀行 丸の内 共同出張所","lon":139.76575500000001,"lat":35.684150000000002}},{"type":"Feature","id":141,"geometry":{"type":"Point","coordinates":[139.7406830000001,35.673183000000051]},"properties":{"OBJECTID":141,"name":"セブン銀行 東京メトロ 南北線 溜池山王駅 共同出張所","lon":139.74068299999999,"lat":35.673183000000002}},{"type":"Feature","id":142,"geometry":{"type":"Point","coordinates":[139.76546900000005,35.686999000000071]},"properties":{"OBJECTID":142,"name":"セブン銀行 東京サンケイビル 共同出張所","lon":139.765469,"lat":35.686999}},{"type":"Feature","id":143,"geometry":{"type":"Point","coordinates":[139.75123300000007,35.699179000000072]},"properties":{"OBJECTID":143,"name":"セブンイレブン 大和ハウス九段ビル店","lon":139.75123300000001,"lat":35.699179000000001}},{"type":"Feature","id":144,"geometry":{"type":"Point","coordinates":[139.76121499999999,35.676715000000058]},"properties":{"OBJECTID":144,"name":"セブン銀行 国際ビル 共同出張所","lon":139.76121499999999,"lat":35.676715000000002}},{"type":"Feature","id":145,"geometry":{"type":"Point","coordinates":[139.75267000000008,35.670921000000078]},"properties":{"OBJECTID":145,"name":"セブンイレブン 内幸町2丁目店","lon":139.75266999999999,"lat":35.670921}},{"type":"Feature","id":146,"geometry":{"type":"Point","coordinates":[139.75746100000003,35.690919000000065]},"properties":{"OBJECTID":146,"name":"セブンイレブン パレスサイドビル店","lon":139.75746100000001,"lat":35.690919000000001}},{"type":"Feature","id":147,"geometry":{"type":"Point","coordinates":[139.746308,35.672666000000049]},"properties":{"OBJECTID":147,"name":"セブン銀行 内閣府 共同出張所","lon":139.746308,"lat":35.672666}},{"type":"Feature","id":148,"geometry":{"type":"Point","coordinates":[139.74786800000004,35.700123000000076]},"properties":{"OBJECTID":148,"name":"セブンイレブン 飯田橋4丁目店","lon":139.74786800000001,"lat":35.700122999999998}},{"type":"Feature","id":149,"geometry":{"type":"Point","coordinates":[139.7502750000001,35.701090000000079]},"properties":{"OBJECTID":149,"name":"セブンイレブン 飯田橋アイガーデンテラス店","lon":139.75027499999999,"lat":35.701090000000001}},{"type":"Feature","id":150,"geometry":{"type":"Point","coordinates":[139.76493600000003,35.678607000000056]},"properties":{"OBJECTID":150,"name":"セブンイレブン 丸の内東京ビル店","lon":139.76493600000001,"lat":35.678607}},{"type":"Feature","id":151,"geometry":{"type":"Point","coordinates":[139.73720100000003,35.685033000000089]},"properties":{"OBJECTID":151,"name":"セブン銀行 東京メトロ 有楽町線 麹町駅 共同出張所","lon":139.737201,"lat":35.685032999999997}},{"type":"Feature","id":152,"geometry":{"type":"Point","coordinates":[139.754009,35.696046000000081]},"properties":{"OBJECTID":152,"name":"セブンイレブン 神田神保町3丁目店","lon":139.754009,"lat":35.696046000000003}},{"type":"Feature","id":153,"geometry":{"type":"Point","coordinates":[139.7606760000001,35.673898000000065]},"properties":{"OBJECTID":153,"name":"セブンイレブン 日比谷駅前店","lon":139.76067599999999,"lat":35.673898000000001}},{"type":"Feature","id":154,"geometry":{"type":"Point","coordinates":[139.767515,35.679870000000051]},"properties":{"OBJECTID":154,"name":"セブン銀行 グランルーフ 共同出張所","lon":139.767515,"lat":35.679870000000001}},{"type":"Feature","id":155,"geometry":{"type":"Point","coordinates":[139.76712500000008,35.681236000000069]},"properties":{"OBJECTID":155,"name":"セブン銀行 東京駅JR EAST Travel Service Center 外貨両替所内 共同出張所","lon":139.76712499999999,"lat":35.681235999999998}},{"type":"Feature","id":156,"geometry":{"type":"Point","coordinates":[139.73650300000008,35.686277000000075]},"properties":{"OBJECTID":156,"name":"セブンイレブン 麹町駅前店","lon":139.736503,"lat":35.686276999999997}},{"type":"Feature","id":157,"geometry":{"type":"Point","coordinates":[139.75078000000008,35.695028000000036]},"properties":{"OBJECTID":157,"name":"セブン銀行 東京メトロ 東西線 九段下駅 共同出張所","lon":139.75077999999999,"lat":35.695028000000001}},{"type":"Feature","id":158,"geometry":{"type":"Point","coordinates":[139.77283,35.698669000000052]},"properties":{"OBJECTID":158,"name":"セブン銀行 アトレ秋葉原 共同出張所","lon":139.77283,"lat":35.698669000000002}},{"type":"Feature","id":159,"geometry":{"type":"Point","coordinates":[139.746308,35.672666000000049]},"properties":{"OBJECTID":159,"name":"セブンイレブン 中央合同庁舎8号館店","lon":139.746308,"lat":35.672666}},{"type":"Feature","id":160,"geometry":{"type":"Point","coordinates":[139.75010400000008,35.672668000000044]},"properties":{"OBJECTID":160,"name":"セブン銀行 東京メトロ 丸ノ内線 霞ケ関駅 霞口 共同出張所","lon":139.75010399999999,"lat":35.672668000000002}},{"type":"Feature","id":161,"geometry":{"type":"Point","coordinates":[139.75010400000008,35.672668000000044]},"properties":{"OBJECTID":161,"name":"セブン銀行 東京メトロ 千代田線 霞ケ関駅 内幸町口 共同出張所","lon":139.75010399999999,"lat":35.672668000000002}},{"type":"Feature","id":162,"geometry":{"type":"Point","coordinates":[139.76412600000003,35.673800000000085]},"properties":{"OBJECTID":162,"name":"セブン銀行 有楽町イトシア 共同出張所","lon":139.764126,"lat":35.6738}},{"type":"Feature","id":163,"geometry":{"type":"Point","coordinates":[139.75775500000009,35.696435000000065]},"properties":{"OBJECTID":163,"name":"セブン銀行 東京メトロ 半蔵門線 神保町駅 共同出張所","lon":139.757755,"lat":35.696435000000001}},{"type":"Feature","id":164,"geometry":{"type":"Point","coordinates":[139.76345100000003,35.673020000000065]},"properties":{"OBJECTID":164,"name":"セブン銀行 西銀座 (NISHIGINZA) 共同出張所","lon":139.763451,"lat":35.673020000000001}},{"type":"Feature","id":165,"geometry":{"type":"Point","coordinates":[139.76432900000009,35.687792000000059]},"properties":{"OBJECTID":165,"name":"セブンイレブン KDDI大手町ビル店","lon":139.764329,"lat":35.687792000000002}},{"type":"Feature","id":166,"geometry":{"type":"Point","coordinates":[139.73638300000005,35.691500000000076]},"properties":{"OBJECTID":166,"name":"セブン銀行 都営地下鉄 新宿線 市ヶ谷駅 共同出張所","lon":139.73638299999999,"lat":35.691499999999998}},{"type":"Feature","id":167,"geometry":{"type":"Point","coordinates":[139.75366800000006,35.698399000000052]},"properties":{"OBJECTID":167,"name":"セブン銀行 千代田ファーストビル東館 共同出張所","lon":139.753668,"lat":35.698399000000002}},{"type":"Feature","id":168,"geometry":{"type":"Point","coordinates":[139.77024000000006,35.683130000000062]},"properties":{"OBJECTID":168,"name":"セブン銀行 鉄鋼ビルディング 共同出張所","lon":139.77024,"lat":35.683129999999998}},{"type":"Feature","id":169,"geometry":{"type":"Point","coordinates":[139.76271200000008,35.674248000000034]},"properties":{"OBJECTID":169,"name":"セブンイレブン 有楽町駅前店","lon":139.76271199999999,"lat":35.674247999999999}},{"type":"Feature","id":170,"geometry":{"type":"Point","coordinates":[139.736403,35.690809000000058]},"properties":{"OBJECTID":170,"name":"セブンイレブン 千代田五番町店","lon":139.736403,"lat":35.690809000000002}},{"type":"Feature","id":171,"geometry":{"type":"Point","coordinates":[139.77264500000001,35.700494000000049]},"properties":{"OBJECTID":171,"name":"セブン銀行 秋葉原UDX 共同出張所","lon":139.77264500000001,"lat":35.700493999999999}},{"type":"Feature","id":172,"geometry":{"type":"Point","coordinates":[139.77966600000002,35.695804000000066]},"properties":{"OBJECTID":172,"name":"セブンイレブン 東神田2丁目店","lon":139.77966599999999,"lat":35.695804000000003}},{"type":"Feature","id":173,"geometry":{"type":"Point","coordinates":[139.75050900000008,35.700406000000044]},"properties":{"OBJECTID":173,"name":"セブンイレブン KDDI本社20階店","lon":139.75050899999999,"lat":35.700406000000001}},{"type":"Feature","id":174,"geometry":{"type":"Point","coordinates":[139.76295200000004,35.685715000000073]},"properties":{"OBJECTID":174,"name":"セブンイレブン 大手町野村ビル店","lon":139.76295200000001,"lat":35.685715000000002}},{"type":"Feature","id":175,"geometry":{"type":"Point","coordinates":[139.74079900000004,35.678774000000089]},"properties":{"OBJECTID":175,"name":"セブン銀行 東京メトロ 有楽町線 永田町駅 共同出張所","lon":139.74079900000001,"lat":35.678773999999997}},{"type":"Feature","id":176,"geometry":{"type":"Point","coordinates":[139.76209300000005,35.675560000000075]},"properties":{"OBJECTID":176,"name":"セブン銀行 新有楽町ビル 共同出張所","lon":139.76209299999999,"lat":35.675559999999997}},{"type":"Feature","id":177,"geometry":{"type":"Point","coordinates":[139.75010500000008,35.695383000000049]},"properties":{"OBJECTID":177,"name":"セブン銀行 都営地下鉄 新宿線 九段下駅 共同出張所","lon":139.75010499999999,"lat":35.695383}},{"type":"Feature","id":178,"geometry":{"type":"Point","coordinates":[139.7684230000001,35.69106400000004]},"properties":{"OBJECTID":178,"name":"セブンイレブン 神田駅西口通り店","lon":139.76842300000001,"lat":35.691063999999997}},{"type":"Feature","id":179,"geometry":{"type":"Point","coordinates":[139.76968100000011,35.696034000000054]},"properties":{"OBJECTID":179,"name":"セブンイレブン 神田須田町中央通り店","lon":139.76968099999999,"lat":35.696033999999997}},{"type":"Feature","id":180,"geometry":{"type":"Point","coordinates":[139.75458700000001,35.67585100000008]},"properties":{"OBJECTID":180,"name":"セブンイレブン 7FS中央合同庁舎6号館店","lon":139.75458699999999,"lat":35.675851000000002}},{"type":"Feature","id":181,"geometry":{"type":"Point","coordinates":[139.735904,35.690447000000063]},"properties":{"OBJECTID":181,"name":"セブンイレブン 市ヶ谷駅前店","lon":139.735904,"lat":35.690446999999999}},{"type":"Feature","id":182,"geometry":{"type":"Point","coordinates":[139.76066100000003,35.678918000000067]},"properties":{"OBJECTID":182,"name":"セブン銀行 東京メトロ 千代田線 二重橋前駅 共同出張所","lon":139.760661,"lat":35.678918000000003}},{"type":"Feature","id":183,"geometry":{"type":"Point","coordinates":[139.7777880000001,35.692074000000048]},"properties":{"OBJECTID":183,"name":"セブンイレブン 千代田岩本町1丁目店","lon":139.77778799999999,"lat":35.692073999999998}},{"type":"Feature","id":184,"geometry":{"type":"Point","coordinates":[139.74141100000008,35.692454000000055]},"properties":{"OBJECTID":184,"name":"セブンイレブン 九段南3丁目店","lon":139.741411,"lat":35.692453999999998}},{"type":"Feature","id":185,"geometry":{"type":"Point","coordinates":[139.74159200000008,35.68270700000005]},"properties":{"OBJECTID":185,"name":"セブンイレブン 千代田平河町1丁目店","lon":139.741592,"lat":35.682707000000001}},{"type":"Feature","id":186,"geometry":{"type":"Point","coordinates":[139.75992000000008,35.673091000000056]},"properties":{"OBJECTID":186,"name":"セブン銀行 日比谷シャンテ 共同出張所","lon":139.75991999999999,"lat":35.673090999999999}},{"type":"Feature","id":187,"geometry":{"type":"Point","coordinates":[139.76217300000008,35.679108000000042]},"properties":{"OBJECTID":187,"name":"セブンイレブン 明治安田生命本社ビル店","lon":139.76217299999999,"lat":35.679107999999999}},{"type":"Feature","id":188,"geometry":{"type":"Point","coordinates":[139.76968100000011,35.696034000000054]},"properties":{"OBJECTID":188,"name":"セブン銀行 東京メトロ 銀座線 神田駅 共同出張所","lon":139.76968099999999,"lat":35.696033999999997}},{"type":"Feature","id":189,"geometry":{"type":"Point","coordinates":[139.76485500000001,35.686398000000054]},"properties":{"OBJECTID":189,"name":"セブン銀行 東京メトロ 千代田線 大手町駅 共同出張所","lon":139.76485500000001,"lat":35.686397999999997}},{"type":"Feature","id":190,"geometry":{"type":"Point","coordinates":[139.759184,35.673729000000037]},"properties":{"OBJECTID":190,"name":"セブンイレブン 東京ミッドタウン日比谷ラウンジ店","lon":139.759184,"lat":35.673729000000002}},{"type":"Feature","id":191,"geometry":{"type":"Point","coordinates":[139.75953100000004,35.674097000000074]},"properties":{"OBJECTID":191,"name":"セブンイレブン 東京ミッドタウン日比谷店","lon":139.75953100000001,"lat":35.674097000000003}},{"type":"Feature","id":192,"geometry":{"type":"Point","coordinates":[139.75768700000003,35.671799000000078]},"properties":{"OBJECTID":192,"name":"セブン銀行 日比谷U-1ビル 共同出張所","lon":139.757687,"lat":35.671799}},{"type":"Feature","id":193,"geometry":{"type":"Point","coordinates":[139.76167500000008,35.694967000000076]},"properties":{"OBJECTID":193,"name":"セブンイレブン 神田小川町3丁目店","lon":139.761675,"lat":35.694966999999998}},{"type":"Feature","id":194,"geometry":{"type":"Point","coordinates":[139.76289700000007,35.675360000000069]},"properties":{"OBJECTID":194,"name":"セブン銀行 東京メトロ 有楽町線 有楽町駅 共同出張所","lon":139.76289700000001,"lat":35.675359999999998}},{"type":"Feature","id":195,"geometry":{"type":"Point","coordinates":[139.75716900000009,35.698600000000056]},"properties":{"OBJECTID":195,"name":"セブンイレブン 神田神保町1丁目店","lon":139.757169,"lat":35.698599999999999}},{"type":"Feature","id":196,"geometry":{"type":"Point","coordinates":[139.76115300000004,35.678097000000037]},"properties":{"OBJECTID":196,"name":"セブンイレブン 丸の内二重橋ビル店","lon":139.76115300000001,"lat":35.678097000000001}},{"type":"Feature","id":197,"geometry":{"type":"Point","coordinates":[139.75305100000003,35.673245000000065]},"properties":{"OBJECTID":197,"name":"セブンイレブン 中央合同庁舎5号館店","lon":139.753051,"lat":35.673245000000001}},{"type":"Feature","id":198,"geometry":{"type":"Point","coordinates":[139.76944100000003,35.696584000000087]},"properties":{"OBJECTID":198,"name":"セブンイレブン 神田万世橋南店","lon":139.769441,"lat":35.696584000000001}},{"type":"Feature","id":199,"geometry":{"type":"Point","coordinates":[139.73870600000009,35.67604300000005]},"properties":{"OBJECTID":199,"name":"セブンイレブン プルデンシャルタワー店","lon":139.73870600000001,"lat":35.676043}},{"type":"Feature","id":200,"geometry":{"type":"Point","coordinates":[139.753289,35.70024200000006]},"properties":{"OBJECTID":200,"name":"セブンイレブン 神田三崎町2丁目店","lon":139.753289,"lat":35.700242000000003}},{"type":"Feature","id":201,"geometry":{"type":"Point","coordinates":[139.77527200000009,35.692680000000053]},"properties":{"OBJECTID":201,"name":"セブンイレブン 神田岩本町店","lon":139.775272,"lat":35.692680000000003}},{"type":"Feature","id":202,"geometry":{"type":"Point","coordinates":[139.767515,35.679870000000051]},"properties":{"OBJECTID":202,"name":"セブン銀行 グランルーフ フロント 共同出張所","lon":139.767515,"lat":35.679870000000001}},{"type":"Feature","id":203,"geometry":{"type":"Point","coordinates":[139.76033100000006,35.675594000000046]},"properties":{"OBJECTID":203,"name":"セブン銀行 東京メトロ 千代田線 日比谷駅 共同出張所","lon":139.76033100000001,"lat":35.675593999999997}},{"type":"Feature","id":204,"geometry":{"type":"Point","coordinates":[139.768282,35.702340000000049]},"properties":{"OBJECTID":204,"name":"セブン銀行 神田明神文化交流館 共同出張所","lon":139.768282,"lat":35.70234}},{"type":"Feature","id":205,"geometry":{"type":"Point","coordinates":[139.76931300000001,35.702750000000037]},"properties":{"OBJECTID":205,"name":"セブンイレブン 外神田2丁目妻恋坂店","lon":139.76931300000001,"lat":35.702750000000002}},{"type":"Feature","id":206,"geometry":{"type":"Point","coordinates":[139.74520500000006,35.689482000000055]},"properties":{"OBJECTID":206,"name":"セブンイレブン 千代田三番町店","lon":139.745205,"lat":35.689481999999998}},{"type":"Feature","id":207,"geometry":{"type":"Point","coordinates":[139.74650200000008,35.697981000000084]},"properties":{"OBJECTID":207,"name":"セブンイレブン 千代田富士見1丁目店","lon":139.74650199999999,"lat":35.697980999999999}},{"type":"Feature","id":208,"geometry":{"type":"Point","coordinates":[139.73458400000004,35.690386000000046]},"properties":{"OBJECTID":208,"name":"セブンイレブン 市ヶ谷駅西店","lon":139.73458400000001,"lat":35.690385999999997}},{"type":"Feature","id":209,"geometry":{"type":"Point","coordinates":[139.77367700000002,35.69787000000008]},"properties":{"OBJECTID":209,"name":"セブン銀行 つくばエクスプレス秋葉原駅 共同出張所","lon":139.77367699999999,"lat":35.697870000000002}},{"type":"Feature","id":210,"geometry":{"type":"Point","coordinates":[139.76474800000005,35.693254000000081]},"properties":{"OBJECTID":210,"name":"セブンイレブン 神田錦町1丁目店","lon":139.764748,"lat":35.693254000000003}},{"type":"Feature","id":211,"geometry":{"type":"Point","coordinates":[139.76464900000008,35.674002000000087]},"properties":{"OBJECTID":211,"name":"セブン銀行 銀座インズ1 共同出張所","lon":139.76464899999999,"lat":35.674002000000002}},{"type":"Feature","id":212,"geometry":{"type":"Point","coordinates":[139.76333099999999,35.691516000000036]},"properties":{"OBJECTID":212,"name":"セブンイレブン 神田錦町2丁目店","lon":139.76333099999999,"lat":35.691516}},{"type":"Feature","id":213,"geometry":{"type":"Point","coordinates":[139.75650300000007,35.692113000000063]},"properties":{"OBJECTID":213,"name":"セブンイレブン 住友商事竹橋ビル店","lon":139.75650300000001,"lat":35.692112999999999}},{"type":"Feature","id":214,"geometry":{"type":"Point","coordinates":[139.73867800000005,35.69208000000009]},"properties":{"OBJECTID":214,"name":"セブンイレブン 九段北4丁目店","lon":139.73867799999999,"lat":35.692079999999997}},{"type":"Feature","id":215,"geometry":{"type":"Point","coordinates":[139.73489300000006,35.682414000000051]},"properties":{"OBJECTID":215,"name":"セブンイレブン 紀尾井坂店","lon":139.734893,"lat":35.682414000000001}},{"type":"Feature","id":216,"geometry":{"type":"Point","coordinates":[139.74229000000003,35.676514000000054]},"properties":{"OBJECTID":216,"name":"セブンイレブン 7FS参議院議員会館店","lon":139.74229,"lat":35.676513999999997}},{"type":"Feature","id":217,"geometry":{"type":"Point","coordinates":[139.76546900000005,35.686999000000071]},"properties":{"OBJECTID":217,"name":"セブンイレブン 東京サンケイビル店","lon":139.765469,"lat":35.686999}},{"type":"Feature","id":218,"geometry":{"type":"Point","coordinates":[139.77401700000007,35.691722000000084]},"properties":{"OBJECTID":218,"name":"セブンイレブン 神田紺屋町店","lon":139.77401699999999,"lat":35.691721999999999}},{"type":"Feature","id":219,"geometry":{"type":"Point","coordinates":[139.76233300000001,35.687637000000052]},"properties":{"OBJECTID":219,"name":"セブンイレブン Otemachi One店","lon":139.76233300000001,"lat":35.687637000000002}},{"type":"Feature","id":220,"geometry":{"type":"Point","coordinates":[139.76295200000004,35.685715000000073]},"properties":{"OBJECTID":220,"name":"セブン銀行 東京メトロ 東西線 大手町駅 共同出張所","lon":139.76295200000001,"lat":35.685715000000002}},{"type":"Feature","id":221,"geometry":{"type":"Point","coordinates":[139.74183600000003,35.671782000000064]},"properties":{"OBJECTID":221,"name":"セブン銀行 東京メトロ 丸ノ内線 国会議事堂前駅 共同出張所","lon":139.74183600000001,"lat":35.671782}},{"type":"Feature","id":222,"geometry":{"type":"Point","coordinates":[139.77264500000001,35.700494000000049]},"properties":{"OBJECTID":222,"name":"セブン銀行 秋葉原UDX 共同出張所","lon":139.77264500000001,"lat":35.700493999999999}},{"type":"Feature","id":223,"geometry":{"type":"Point","coordinates":[139.76081700000009,35.675837000000058]},"properties":{"OBJECTID":223,"name":"セブン銀行 都営地下鉄 三田線 日比谷駅 共同出張所","lon":139.760817,"lat":35.675837000000001}},{"type":"Feature","id":224,"geometry":{"type":"Point","coordinates":[139.75834000000009,35.67240600000008]},"properties":{"OBJECTID":224,"name":"セブンイレブン AIM内幸町1丁目店","lon":139.75834,"lat":35.672406000000002}},{"type":"Feature","id":225,"geometry":{"type":"Point","coordinates":[139.76743700000009,35.686859000000084]},"properties":{"OBJECTID":225,"name":"セブンイレブン NTTCom大手町プレイス店","lon":139.767437,"lat":35.686858999999998}},{"type":"Feature","id":226,"geometry":{"type":"Point","coordinates":[139.76575500000001,35.684150000000045]},"properties":{"OBJECTID":226,"name":"セブンイレブン 丸の内センタービル店","lon":139.76575500000001,"lat":35.684150000000002}},{"type":"Feature","id":227,"geometry":{"type":"Point","coordinates":[139.77217700000006,35.698781000000054]},"properties":{"OBJECTID":227,"name":"セブンイレブン 秋葉原電気街口店","lon":139.772177,"lat":35.698780999999997}},{"type":"Feature","id":228,"geometry":{"type":"Point","coordinates":[139.75971000000004,35.690624000000071]},"properties":{"OBJECTID":228,"name":"セブンイレブン 丸紅ビル店","lon":139.75971000000001,"lat":35.690624}},{"type":"Feature","id":229,"geometry":{"type":"Point","coordinates":[139.77058700000009,35.684055000000058]},"properties":{"OBJECTID":229,"name":"セブンイレブン 常盤橋タワーB1F店","lon":139.77058700000001,"lat":35.684055000000001}},{"type":"Feature","id":230,"geometry":{"type":"Point","coordinates":[139.77228700000001,35.693304000000069]},"properties":{"OBJECTID":230,"name":"セブンイレブン 千代田鍛冶町2丁目店","lon":139.77228700000001,"lat":35.693303999999998}},{"type":"Feature","id":231,"geometry":{"type":"Point","coordinates":[139.77555200000006,35.694621000000041]},"properties":{"OBJECTID":231,"name":"セブンイレブン 千代田岩本町3丁目店","lon":139.775552,"lat":35.694620999999998}},{"type":"Feature","id":232,"geometry":{"type":"Point","coordinates":[139.73558500000001,35.686733000000061]},"properties":{"OBJECTID":232,"name":"セブンイレブン 二番町ファーストビル店","lon":139.73558499999999,"lat":35.686732999999997}},{"type":"Feature","id":233,"geometry":{"type":"Point","coordinates":[139.736897,35.679714000000047]},"properties":{"OBJECTID":233,"name":"セブン銀行 東京ガーデンテラス紀尾井町 共同出張所","lon":139.736897,"lat":35.679713999999997}},{"type":"Feature","id":234,"geometry":{"type":"Point","coordinates":[139.77521200000001,35.697767000000056]},"properties":{"OBJECTID":234,"name":"セブンイレブン 秋葉原駅前店","lon":139.77521200000001,"lat":35.697766999999999}},{"type":"Feature","id":235,"geometry":{"type":"Point","coordinates":[139.75777100000005,35.695626000000061]},"properties":{"OBJECTID":235,"name":"セブン銀行 都営地下鉄 三田線 神保町駅 共同出張所","lon":139.75777099999999,"lat":35.695625999999997}},{"type":"Feature","id":236,"geometry":{"type":"Point","coordinates":[139.76464900000008,35.674002000000087]},"properties":{"OBJECTID":236,"name":"セブン銀行 銀座インズ1 共同出張所","lon":139.76464899999999,"lat":35.674002000000002}},{"type":"Feature","id":237,"geometry":{"type":"Point","coordinates":[139.76448900000003,35.687138000000061]},"properties":{"OBJECTID":237,"name":"セブンイレブン 読売新聞東京本社ビル店","lon":139.764489,"lat":35.687137999999997}},{"type":"Feature","id":238,"geometry":{"type":"Point","coordinates":[139.76696500000003,35.685907000000043]},"properties":{"OBJECTID":238,"name":"セブン銀行 野村證券 アーバンネット大手町 共同出張所","lon":139.766965,"lat":35.685907}},{"type":"Feature","id":239,"geometry":{"type":"Point","coordinates":[139.76433100000008,35.674890000000062]},"properties":{"OBJECTID":239,"name":"外貨両替ワールドカレンシーショップ (三菱UFJフィナンシャル・グループ) 有楽町店","lon":139.764331,"lat":35.674889999999998}},{"type":"Feature","id":240,"geometry":{"type":"Point","coordinates":[139.74183600000003,35.671782000000064]},"properties":{"OBJECTID":240,"name":"国会内郵便局","lon":139.74183600000001,"lat":35.671782}},{"type":"Feature","id":241,"geometry":{"type":"Point","coordinates":[139.74724100000003,35.671183000000042]},"properties":{"OBJECTID":241,"name":"霞が関ビル内郵便局","lon":139.747241,"lat":35.671182999999999}},{"type":"Feature","id":242,"geometry":{"type":"Point","coordinates":[139.7433880000001,35.698453000000086]},"properties":{"OBJECTID":242,"name":"飯田橋郵便局","lon":139.74338800000001,"lat":35.698453000000001}},{"type":"Feature","id":243,"geometry":{"type":"Point","coordinates":[139.77261500000009,35.700550000000078]},"properties":{"OBJECTID":243,"name":"秋葉原UDX内郵便局","lon":139.772615,"lat":35.70055}},{"type":"Feature","id":244,"geometry":{"type":"Point","coordinates":[139.76432900000009,35.678609000000051]},"properties":{"OBJECTID":244,"name":"外貨両替ワールドカレンシーショップ (三菱UFJフィナンシャル・グループ) 三菱UFJ銀行本店","lon":139.764329,"lat":35.678609000000002}},{"type":"Feature","id":245,"geometry":{"type":"Point","coordinates":[139.73893700000008,35.679186000000072]},"properties":{"OBJECTID":245,"name":"都道府県会館内郵便局","lon":139.73893699999999,"lat":35.679186000000001}},{"type":"Feature","id":246,"geometry":{"type":"Point","coordinates":[139.7647290000001,35.679845000000057]},"properties":{"OBJECTID":246,"name":"ゆうちょ銀行 本店 JPローソン東京中央局店内ATM","lon":139.76472899999999,"lat":35.679845}},{"type":"Feature","id":247,"geometry":{"type":"Point","coordinates":[139.76081700000009,35.675837000000058]},"properties":{"OBJECTID":247,"name":"第一生命館内郵便局","lon":139.760817,"lat":35.675837000000001}},{"type":"Feature","id":248,"geometry":{"type":"Point","coordinates":[139.73821800000007,35.676446000000055]},"properties":{"OBJECTID":248,"name":"山王グランドビル内郵便局","lon":139.73821799999999,"lat":35.676445999999999}},{"type":"Feature","id":249,"geometry":{"type":"Point","coordinates":[139.75148799999999,35.673865000000035]},"properties":{"OBJECTID":249,"name":"霞ヶ関郵便局","lon":139.75148799999999,"lat":35.673864999999999}},{"type":"Feature","id":250,"geometry":{"type":"Point","coordinates":[139.76355100000001,35.691227000000083]},"properties":{"OBJECTID":250,"name":"神田錦町郵便局","lon":139.76355100000001,"lat":35.691226999999998}},{"type":"Feature","id":251,"geometry":{"type":"Point","coordinates":[139.76480900000001,35.686405000000036]},"properties":{"OBJECTID":251,"name":"大手町ビル内郵便局","lon":139.76480900000001,"lat":35.686405000000001}},{"type":"Feature","id":252,"geometry":{"type":"Point","coordinates":[139.73415199999999,35.681683000000078]},"properties":{"OBJECTID":252,"name":"ホテルニューオータニ内郵便局","lon":139.73415199999999,"lat":35.681683}},{"type":"Feature","id":253,"geometry":{"type":"Point","coordinates":[139.75138800000002,35.675644000000034]},"properties":{"OBJECTID":253,"name":"第二霞ケ関郵便局","lon":139.75138799999999,"lat":35.675643999999998}},{"type":"Feature","id":254,"geometry":{"type":"Point","coordinates":[139.77024000000006,35.683130000000062]},"properties":{"OBJECTID":254,"name":"鉄鋼ビル郵便局","lon":139.77024,"lat":35.683129999999998}},{"type":"Feature","id":255,"geometry":{"type":"Point","coordinates":[139.75834000000009,35.67240600000008]},"properties":{"OBJECTID":255,"name":"帝国ホテル内郵便局","lon":139.75834,"lat":35.672406000000002}},{"type":"Feature","id":256,"geometry":{"type":"Point","coordinates":[139.74364800000001,35.680286000000081]},"properties":{"OBJECTID":256,"name":"最高裁判所内郵便局","lon":139.74364800000001,"lat":35.680286000000002}},{"type":"Feature","id":257,"geometry":{"type":"Point","coordinates":[139.73675300000002,35.683294000000046]},"properties":{"OBJECTID":257,"name":"海事ビル内郵便局","lon":139.73675299999999,"lat":35.683293999999997}},{"type":"Feature","id":258,"geometry":{"type":"Point","coordinates":[139.75746100000003,35.690919000000065]},"properties":{"OBJECTID":258,"name":"パレスサイドビル内郵便局","lon":139.75746100000001,"lat":35.690919000000001}},{"type":"Feature","id":259,"geometry":{"type":"Point","coordinates":[139.76433100000008,35.674890000000062]},"properties":{"OBJECTID":259,"name":"東京交通会館内郵便局","lon":139.764331,"lat":35.674889999999998}},{"type":"Feature","id":260,"geometry":{"type":"Point","coordinates":[139.73612300000002,35.688653000000045]},"properties":{"OBJECTID":260,"name":"千代田四番町郵便局","lon":139.73612299999999,"lat":35.688653000000002}},{"type":"Feature","id":261,"geometry":{"type":"Point","coordinates":[139.75255000000004,35.695154000000059]},"properties":{"OBJECTID":261,"name":"九段郵便局","lon":139.75255000000001,"lat":35.695154000000002}},{"type":"Feature","id":262,"geometry":{"type":"Point","coordinates":[139.76609400000007,35.694524000000058]},"properties":{"OBJECTID":262,"name":"小川町駅前郵便局","lon":139.76609400000001,"lat":35.694524000000001}},{"type":"Feature","id":263,"geometry":{"type":"Point","coordinates":[139.73351700000001,35.684488000000044]},"properties":{"OBJECTID":263,"name":"麹町本通郵便局","lon":139.73351700000001,"lat":35.684488000000002}},{"type":"Feature","id":264,"geometry":{"type":"Point","coordinates":[139.749188,35.699334000000079]},"properties":{"OBJECTID":264,"name":"麹町飯田橋通郵便局","lon":139.749188,"lat":35.699334}},{"type":"Feature","id":265,"geometry":{"type":"Point","coordinates":[139.75714200000004,35.699685000000045]},"properties":{"OBJECTID":265,"name":"西神田郵便局","lon":139.75714199999999,"lat":35.699685000000002}},{"type":"Feature","id":266,"geometry":{"type":"Point","coordinates":[139.75275000000011,35.675186000000053]},"properties":{"OBJECTID":266,"name":"東京高等裁判所内郵便局","lon":139.75274999999999,"lat":35.675185999999997}},{"type":"Feature","id":267,"geometry":{"type":"Point","coordinates":[139.75775500000009,35.696435000000065]},"properties":{"OBJECTID":267,"name":"神田北神保町郵便局","lon":139.757755,"lat":35.696435000000001}},{"type":"Feature","id":268,"geometry":{"type":"Point","coordinates":[139.77185100000008,35.690557000000069]},"properties":{"OBJECTID":268,"name":"神田今川橋郵便局","lon":139.771851,"lat":35.690556999999998}},{"type":"Feature","id":269,"geometry":{"type":"Point","coordinates":[139.76501500000006,35.680083000000081]},"properties":{"OBJECTID":269,"name":"ゆうちょ銀行 本店 ローソンKITTE丸の内店内ATM","lon":139.76501500000001,"lat":35.680083000000003}},{"type":"Feature","id":270,"geometry":{"type":"Point","coordinates":[139.75849500000004,35.69513500000005]},"properties":{"OBJECTID":270,"name":"神田南神保町郵便局","lon":139.75849500000001,"lat":35.695135000000001}},{"type":"Feature","id":271,"geometry":{"type":"Point","coordinates":[139.74799900000005,35.684219000000041]},"properties":{"OBJECTID":271,"name":"宮内庁内郵便局","lon":139.74799899999999,"lat":35.684218999999999}},{"type":"Feature","id":272,"geometry":{"type":"Point","coordinates":[139.73929700000008,35.686394000000064]},"properties":{"OBJECTID":272,"name":"千代田一番町郵便局","lon":139.73929699999999,"lat":35.686394}},{"type":"Feature","id":273,"geometry":{"type":"Point","coordinates":[139.76255200000003,35.700223000000051]},"properties":{"OBJECTID":273,"name":"神田駿河台郵便局","lon":139.762552,"lat":35.700223000000001}},{"type":"Feature","id":274,"geometry":{"type":"Point","coordinates":[139.77173600000003,35.693388000000084]},"properties":{"OBJECTID":274,"name":"千代田鍛冶町郵便局","lon":139.771736,"lat":35.693387999999999}},{"type":"Feature","id":275,"geometry":{"type":"Point","coordinates":[139.777152,35.693835000000036]},"properties":{"OBJECTID":275,"name":"千代田岩本町郵便局","lon":139.777152,"lat":35.693835}},{"type":"Feature","id":276,"geometry":{"type":"Point","coordinates":[139.7406830000001,35.673183000000051]},"properties":{"OBJECTID":276,"name":"山王パークタワー内郵便局","lon":139.74068299999999,"lat":35.673183000000002}},{"type":"Feature","id":277,"geometry":{"type":"Point","coordinates":[139.76433300000008,35.696691000000044]},"properties":{"OBJECTID":277,"name":"新御茶ノ水駅前郵便局","lon":139.76433299999999,"lat":35.696691000000001}},{"type":"Feature","id":278,"geometry":{"type":"Point","coordinates":[139.75387000000001,35.697248000000059]},"properties":{"OBJECTID":278,"name":"ゆうちょ銀行 本店 専修大学内出張所(ATM)","lon":139.75387000000001,"lat":35.697248000000002}},{"type":"Feature","id":279,"geometry":{"type":"Point","coordinates":[139.76143000000002,35.697396000000083]},"properties":{"OBJECTID":279,"name":"ゆうちょ銀行 本店 明治大学駿河台校舎内出張所(ATM)","lon":139.76142999999999,"lat":35.697395999999998}},{"type":"Feature","id":280,"geometry":{"type":"Point","coordinates":[139.761617,35.674941000000047]},"properties":{"OBJECTID":280,"name":"ゆうちょ銀行 本店 有楽町ビルヂング内出張所(ATM)","lon":139.761617,"lat":35.674940999999997}},{"type":"Feature","id":281,"geometry":{"type":"Point","coordinates":[139.76289700000007,35.675360000000069]},"properties":{"OBJECTID":281,"name":"ゆうちょ銀行 本店 有楽町線有楽町駅内出張所(ATM)","lon":139.76289700000001,"lat":35.675359999999998}},{"type":"Feature","id":282,"geometry":{"type":"Point","coordinates":[139.74143600000002,35.696228000000076]},"properties":{"OBJECTID":282,"name":"ゆうちょ銀行 本店 法政大学市ケ谷校舎内出張所(ATM)","lon":139.74143599999999,"lat":35.696227999999998}},{"type":"Feature","id":283,"geometry":{"type":"Point","coordinates":[139.77252600000008,35.698476000000085]},"properties":{"OBJECTID":283,"name":"ゆうちょ銀行 本店 アトレ秋葉原1内出張所(ATM)","lon":139.772526,"lat":35.698475999999999}},{"type":"Feature","id":284,"geometry":{"type":"Point","coordinates":[139.76289700000007,35.675360000000069]},"properties":{"OBJECTID":284,"name":"ゆうちょ銀行 本店 ビックカメラ有楽町店内出張所(ATM)","lon":139.76289700000001,"lat":35.675359999999998}},{"type":"Feature","id":285,"geometry":{"type":"Point","coordinates":[139.76771500000007,35.679846000000055]},"properties":{"OBJECTID":285,"name":"ゆうちょ銀行 本店 東京駅一番街八重洲南口出張所(ATM)","lon":139.76771500000001,"lat":35.679845999999998}},{"type":"Feature","id":286,"geometry":{"type":"Point","coordinates":[139.74325500000009,35.697582000000068]},"properties":{"OBJECTID":286,"name":"ゆうちょ銀行 本店 東京逓信病院内出張所(ATM)","lon":139.743255,"lat":35.697581999999997}},{"type":"Feature","id":287,"geometry":{"type":"Point","coordinates":[139.74105300000008,35.686812000000089]},"properties":{"OBJECTID":287,"name":"ゆうちょ銀行 本店 ファミリーマート一番町店内出張所(ATM)","lon":139.74105299999999,"lat":35.686812000000003}},{"type":"Feature","id":288,"geometry":{"type":"Point","coordinates":[139.76642600000002,35.696971000000076]},"properties":{"OBJECTID":288,"name":"ゆうちょ銀行 本店 ファミリーマート神田淡路町二丁目店内出張所(ATM)","lon":139.766426,"lat":35.696970999999998}},{"type":"Feature","id":289,"geometry":{"type":"Point","coordinates":[139.76209300000005,35.676421000000062]},"properties":{"OBJECTID":289,"name":"ゆうちょ銀行 本店 ファミリーマート丸の内新国際ビル店内出張所(ATM)","lon":139.76209299999999,"lat":35.676420999999998}},{"type":"Feature","id":290,"geometry":{"type":"Point","coordinates":[139.7751330000001,35.691675000000089]},"properties":{"OBJECTID":290,"name":"ゆうちょ銀行 本店 ファミリーマート神田岩本町一丁目店内出張所(ATM)","lon":139.77513300000001,"lat":35.691674999999996}},{"type":"Feature","id":291,"geometry":{"type":"Point","coordinates":[139.73807900000008,35.682840000000056]},"properties":{"OBJECTID":291,"name":"ゆうちょ銀行 本店 ファミリーマート紀尾井町三番地店内出張所(ATM)","lon":139.738079,"lat":35.682839999999999}},{"type":"Feature","id":292,"geometry":{"type":"Point","coordinates":[139.75538500000005,35.670575000000042]},"properties":{"OBJECTID":292,"name":"ゆうちょ銀行 本店 ファミリーマート内幸町富国生命ビル店内出張所(ATM)","lon":139.75538499999999,"lat":35.670574999999999}},{"type":"Feature","id":293,"geometry":{"type":"Point","coordinates":[139.75138800000002,35.675644000000034]},"properties":{"OBJECTID":293,"name":"ゆうちょ銀行 本店 ファミリーマート霞ヶ関合同庁舎店内出張所(ATM)","lon":139.75138799999999,"lat":35.675643999999998}},{"type":"Feature","id":294,"geometry":{"type":"Point","coordinates":[139.76845000000003,35.695487000000071]},"properties":{"OBJECTID":294,"name":"ゆうちょ銀行 本店 ファミリーマート神田須田町一丁目店内出張所(ATM)","lon":139.76845,"lat":35.695487}},{"type":"Feature","id":295,"geometry":{"type":"Point","coordinates":[139.76468900000009,35.685891000000083]},"properties":{"OBJECTID":295,"name":"ゆうちょ銀行 本店 ファミリーマートファーストスクエア店内出張所(ATM)","lon":139.764689,"lat":35.685890999999998}},{"type":"Feature","id":296,"geometry":{"type":"Point","coordinates":[139.77190700000006,35.70195700000005]},"properties":{"OBJECTID":296,"name":"ゆうちょ銀行 本店 ファミリーマート外神田四丁目店内出張所(ATM)","lon":139.771907,"lat":35.701957}},{"type":"Feature","id":297,"geometry":{"type":"Point","coordinates":[139.7406830000001,35.673183000000051]},"properties":{"OBJECTID":297,"name":"ゆうちょ銀行 本店 ファミリーマート山王パークタワー店内出張所(ATM)","lon":139.74068299999999,"lat":35.673183000000002}},{"type":"Feature","id":298,"geometry":{"type":"Point","coordinates":[139.7480230000001,35.673109000000068]},"properties":{"OBJECTID":298,"name":"ゆうちょ銀行 本店 ファミリーマート財務省本庁舎店内出張所(ATM)","lon":139.74802299999999,"lat":35.673108999999997}},{"type":"Feature","id":299,"geometry":{"type":"Point","coordinates":[139.77515200000005,35.699052000000052]},"properties":{"OBJECTID":299,"name":"ゆうちょ銀行 本店 ファミリーマート秋葉原昭和通り店内出張所(ATM)","lon":139.77515199999999,"lat":35.699052000000002}},{"type":"Feature","id":300,"geometry":{"type":"Point","coordinates":[139.75124600000004,35.701782000000037]},"properties":{"OBJECTID":300,"name":"ゆうちょ銀行 本店 ファミリーマート三崎町三丁目店内出張所(ATM)","lon":139.75124600000001,"lat":35.701782000000001}},{"type":"Feature","id":301,"geometry":{"type":"Point","coordinates":[139.74171200000001,35.684907000000067]},"properties":{"OBJECTID":301,"name":"ゆうちょ銀行 本店 ファミリーマート麹町一丁目店内出張所(ATM)","lon":139.74171200000001,"lat":35.684907000000003}},{"type":"Feature","id":302,"geometry":{"type":"Point","coordinates":[139.75490600000001,35.701370000000054]},"properties":{"OBJECTID":302,"name":"ゆうちょ銀行 本店 ファミリーマート水道橋駅東口店内出張所(ATM)","lon":139.75490600000001,"lat":35.701369999999997}},{"type":"Feature","id":303,"geometry":{"type":"Point","coordinates":[139.73268700000006,35.684683000000064]},"properties":{"OBJECTID":303,"name":"ゆうちょ銀行 本店 あおぞら銀行本店内出張所(ATM)","lon":139.732687,"lat":35.684683}},{"type":"Feature","id":304,"geometry":{"type":"Point","coordinates":[139.767877,35.687007000000051]},"properties":{"OBJECTID":304,"name":"ゆうちょ銀行 本店 JPローソン大手町プレイス2階店内出張所(ATM)","lon":139.767877,"lat":35.687007000000001}},{"type":"Feature","id":305,"geometry":{"type":"Point","coordinates":[139.76409000000001,35.676432000000034]},"properties":{"OBJECTID":305,"name":"ゆうちょ銀行 本店 ファミリーマート東京国際フォーラム店内出張所(ATM)","lon":139.76409000000001,"lat":35.676431999999998}},{"type":"Feature","id":306,"geometry":{"type":"Point","coordinates":[139.76044100000001,35.689895000000035]},"properties":{"OBJECTID":306,"name":"ゆうちょ銀行 本店 ファミマ大手町パークビル店内出張所(ATM)","lon":139.76044099999999,"lat":35.689895}},{"type":"Feature","id":307,"geometry":{"type":"Point","coordinates":[139.76861100000008,35.683718000000056]},"properties":{"OBJECTID":307,"name":"ゆうちょ銀行 本店 ファミマサピアタワー/S店内出張所(ATM)","lon":139.76861099999999,"lat":35.683717999999999}},{"type":"Feature","id":308,"geometry":{"type":"Point","coordinates":[139.756169,35.699083000000087]},"properties":{"OBJECTID":308,"name":"ゆうちょ銀行 本店 ファミリーマート西神田二丁目店内出張所(ATM)","lon":139.756169,"lat":35.699083000000002}},{"type":"Feature","id":309,"geometry":{"type":"Point","coordinates":[139.76628800000003,35.689906000000065]},"properties":{"OBJECTID":309,"name":"ゆうちょ銀行 本店 ファミリーマート内神田鎌倉橋店内出張所(ATM)","lon":139.766288,"lat":35.689906000000001}},{"type":"Feature","id":310,"geometry":{"type":"Point","coordinates":[139.76970100000005,35.69383600000009]},"properties":{"OBJECTID":310,"name":"ゆうちょ銀行 本店 ファミリーマート神田多町店内出張所(ATM)","lon":139.769701,"lat":35.693835999999997}},{"type":"Feature","id":311,"geometry":{"type":"Point","coordinates":[139.76764400000002,35.692384000000061]},"properties":{"OBJECTID":311,"name":"ゆうちょ銀行 本店 ファミリーマート神田司町店内出張所(ATM)","lon":139.76764399999999,"lat":35.692383999999997}},{"type":"Feature","id":312,"geometry":{"type":"Point","coordinates":[139.74183100000005,35.683305000000075]},"properties":{"OBJECTID":312,"name":"ゆうちょ銀行 本店 ファミリーマート半蔵門駅南店内出張所(ATM)","lon":139.74183099999999,"lat":35.683304999999997}},{"type":"Feature","id":313,"geometry":{"type":"Point","coordinates":[139.77109800000005,35.690451000000053]},"properties":{"OBJECTID":313,"name":"ゆうちょ銀行 本店 ファミリーマート神田鍛冶町店内出張所(ATM)","lon":139.77109799999999,"lat":35.690451000000003}},{"type":"Feature","id":314,"geometry":{"type":"Point","coordinates":[139.76586400000008,35.684079000000054]},"properties":{"OBJECTID":314,"name":"SBJ銀行 東京支店","lon":139.76586399999999,"lat":35.684078999999997}},{"type":"Feature","id":315,"geometry":{"type":"Point","coordinates":[139.76577300000008,35.68758900000006]},"properties":{"OBJECTID":315,"name":"日本政策投資銀行 本店","lon":139.765773,"lat":35.687589000000003}},{"type":"Feature","id":316,"geometry":{"type":"Point","coordinates":[139.76460900000006,35.692674000000068]},"properties":{"OBJECTID":316,"name":"イオン銀行 本店法人営業部","lon":139.76460900000001,"lat":35.692673999999997}},{"type":"Feature","id":317,"geometry":{"type":"Point","coordinates":[139.76282300000003,35.686607000000038]},"properties":{"OBJECTID":317,"name":"シティバンク、エヌ・エイ東京支店","lon":139.762823,"lat":35.686607000000002}},{"type":"Feature","id":318,"geometry":{"type":"Point","coordinates":[139.76704500000005,35.685006000000044]},"properties":{"OBJECTID":318,"name":"中国銀行 東京大手町支店","lon":139.767045,"lat":35.685006000000001}},{"type":"Feature","id":319,"geometry":{"type":"Point","coordinates":[139.76471200000003,35.683310000000063]},"properties":{"OBJECTID":319,"name":"三菱UFJ信託銀行 信託博物館","lon":139.764712,"lat":35.683309999999999}},{"type":"Feature","id":320,"geometry":{"type":"Point","coordinates":[139.73722100000009,35.691657000000077]},"properties":{"OBJECTID":320,"name":"ゆうちょ銀行 本店 ファミリーマート市ヶ谷店内出張所(ATM)","lon":139.73722100000001,"lat":35.691656999999999}},{"type":"Feature","id":321,"geometry":{"type":"Point","coordinates":[139.75489100000004,35.696286000000043]},"properties":{"OBJECTID":321,"name":"ゆうちょ銀行 本店 ファミリーマート専大通り店内出張所(ATM)","lon":139.75489099999999,"lat":35.696286000000001}},{"type":"Feature","id":322,"geometry":{"type":"Point","coordinates":[139.74605600000007,35.701431000000071]},"properties":{"OBJECTID":322,"name":"ゆうちょ銀行 本店 ファミリーマート飯田橋駅前店内出張所(ATM)","lon":139.74605600000001,"lat":35.701430999999999}},{"type":"Feature","id":323,"geometry":{"type":"Point","coordinates":[139.73821800000007,35.676446000000055]},"properties":{"OBJECTID":323,"name":"ゆうちょ銀行 本店 ファミリーマート永田町店内出張所(ATM)","lon":139.73821799999999,"lat":35.676445999999999}},{"type":"Feature","id":324,"geometry":{"type":"Point","coordinates":[139.76141700000005,35.698780000000056]},"properties":{"OBJECTID":324,"name":"ゆうちょ銀行 本店 ファミリーマート御茶ノ水とちの木通り店内出張所(ATM)","lon":139.76141699999999,"lat":35.698779999999999}},{"type":"Feature","id":325,"geometry":{"type":"Point","coordinates":[139.76480900000001,35.686405000000036]},"properties":{"OBJECTID":325,"name":"ゆうちょ銀行 本店 ファミリーマート大手町ビル店内出張所(ATM)","lon":139.76480900000001,"lat":35.686405000000001}},{"type":"Feature","id":326,"geometry":{"type":"Point","coordinates":[139.74797599999999,35.671849000000066]},"properties":{"OBJECTID":326,"name":"ゆうちょ銀行 本店 ファミリーマート南山堂中央合同庁舎7号館店内出張所(ATM)","lon":139.74797599999999,"lat":35.671849000000002}},{"type":"Feature","id":327,"geometry":{"type":"Point","coordinates":[139.75658300000009,35.696807000000035]},"properties":{"OBJECTID":327,"name":"ゆうちょ銀行 本店 ファミリーマート神保町さくら通り店内出張所(ATM)","lon":139.75658300000001,"lat":35.696807}},{"type":"Feature","id":328,"geometry":{"type":"Point","coordinates":[139.76460900000006,35.692674000000068]},"properties":{"OBJECTID":328,"name":"イオン銀行 神田店","lon":139.76460900000001,"lat":35.692673999999997}},{"type":"Feature","id":329,"geometry":{"type":"Point","coordinates":[139.7518950000001,35.694688000000042]},"properties":{"OBJECTID":329,"name":"(ATM)三井住友銀行 九段出張所","lon":139.75189499999999,"lat":35.694687999999999}},{"type":"Feature","id":330,"geometry":{"type":"Point","coordinates":[139.7622530000001,35.694342000000063]},"properties":{"OBJECTID":330,"name":"朝日信用金庫 神田小川町支店","lon":139.76225299999999,"lat":35.694341999999999}},{"type":"Feature","id":331,"geometry":{"type":"Point","coordinates":[139.74422000000004,35.678467000000069]},"properties":{"OBJECTID":331,"name":"りそな銀行 国立国会図書館出張所 店舗外ATM","lon":139.74422000000001,"lat":35.678466999999998}},{"type":"Feature","id":332,"geometry":{"type":"Point","coordinates":[139.7752210000001,35.698604000000046]},"properties":{"OBJECTID":332,"name":"三井住友銀行 秋葉原東口出張所","lon":139.77522099999999,"lat":35.698604000000003}},{"type":"Feature","id":333,"geometry":{"type":"Point","coordinates":[139.76194600000008,35.700196000000062]},"properties":{"OBJECTID":333,"name":"中央労働金庫 本店営業部","lon":139.76194599999999,"lat":35.700195999999998}},{"type":"Feature","id":334,"geometry":{"type":"Point","coordinates":[139.76497700000004,35.678495000000055]},"properties":{"OBJECTID":334,"name":"JPモルガン・チェース銀行 東京支店","lon":139.76497699999999,"lat":35.678494999999998}},{"type":"Feature","id":335,"geometry":{"type":"Point","coordinates":[139.76839000000007,35.696083000000044]},"properties":{"OBJECTID":335,"name":"りそな銀行 神田支店","lon":139.76839000000001,"lat":35.696083000000002}},{"type":"Feature","id":336,"geometry":{"type":"Point","coordinates":[139.76380300000005,35.681040000000053]},"properties":{"OBJECTID":336,"name":"三菱UFJ銀行 本店 丸ビル出張所","lon":139.763803,"lat":35.681040000000003}},{"type":"Feature","id":337,"geometry":{"type":"Point","coordinates":[139.76380300000005,35.681040000000053]},"properties":{"OBJECTID":337,"name":"ゆうちょ銀行本店 丸ビル内出張所","lon":139.763803,"lat":35.681040000000003}},{"type":"Feature","id":338,"geometry":{"type":"Point","coordinates":[139.76500800000008,35.694842000000051]},"properties":{"OBJECTID":338,"name":"大東銀行東京支店","lon":139.76500799999999,"lat":35.694842000000001}},{"type":"Feature","id":339,"geometry":{"type":"Point","coordinates":[139.74458600000003,35.700654000000043]},"properties":{"OBJECTID":339,"name":"東京スター銀行ATM 三徳 飯田橋店","lon":139.744586,"lat":35.700654}},{"type":"Feature","id":340,"geometry":{"type":"Point","coordinates":[139.770759,35.703173000000049]},"properties":{"OBJECTID":340,"name":"三井住友銀行 秋葉原出張所","lon":139.770759,"lat":35.703173}},{"type":"Feature","id":341,"geometry":{"type":"Point","coordinates":[139.76273000000003,35.686006000000077]},"properties":{"OBJECTID":341,"name":"PRESTIA(プレスティア) SMBC信託銀行 大手町支店","lon":139.76273,"lat":35.686005999999999}},{"type":"Feature","id":342,"geometry":{"type":"Point","coordinates":[139.77521200000001,35.697767000000056]},"properties":{"OBJECTID":342,"name":"レイクALSA 秋葉原自動契約コーナー","lon":139.77521200000001,"lat":35.697766999999999}},{"type":"Feature","id":343,"geometry":{"type":"Point","coordinates":[139.76424400000008,35.68262100000004]},"properties":{"OBJECTID":343,"name":"三菱UFJ銀行 新丸ビル出張所","lon":139.76424399999999,"lat":35.682620999999997}},{"type":"Feature","id":344,"geometry":{"type":"Point","coordinates":[139.76996600000007,35.699197000000083]},"properties":{"OBJECTID":344,"name":"ゆうちょ銀行本店NREG秋葉原ビル内出張所","lon":139.76996600000001,"lat":35.699196999999998}},{"type":"Feature","id":345,"geometry":{"type":"Point","coordinates":[139.75794600000006,35.697444000000075]},"properties":{"OBJECTID":345,"name":"興産信用金庫 神保町支店","lon":139.757946,"lat":35.697443999999997}},{"type":"Feature","id":346,"geometry":{"type":"Point","coordinates":[139.761933,35.680088000000069]},"properties":{"OBJECTID":346,"name":"池田泉州銀行 東京支店","lon":139.761933,"lat":35.680087999999998}},{"type":"Feature","id":347,"geometry":{"type":"Point","coordinates":[139.76696500000003,35.685907000000043]},"properties":{"OBJECTID":347,"name":"野村信託銀行","lon":139.766965,"lat":35.685907}},{"type":"Feature","id":348,"geometry":{"type":"Point","coordinates":[139.76273000000003,35.686006000000077]},"properties":{"OBJECTID":348,"name":"SMBC信託銀行 大手町支店","lon":139.76273,"lat":35.686005999999999}},{"type":"Feature","id":349,"geometry":{"type":"Point","coordinates":[139.76424400000008,35.68262100000004]},"properties":{"OBJECTID":349,"name":"三井住友銀行 新丸ビル出張所","lon":139.76424399999999,"lat":35.682620999999997}},{"type":"Feature","id":350,"geometry":{"type":"Point","coordinates":[139.76385000000005,35.685591000000045]},"properties":{"OBJECTID":350,"name":"中国建設銀行 東京支店","lon":139.76384999999999,"lat":35.685591000000002}},{"type":"Feature","id":351,"geometry":{"type":"Point","coordinates":[139.76743700000009,35.686859000000084]},"properties":{"OBJECTID":351,"name":"株式会社ゆうちょ銀行","lon":139.767437,"lat":35.686858999999998}},{"type":"Feature","id":352,"geometry":{"type":"Point","coordinates":[139.77213700000004,35.701699000000076]},"properties":{"OBJECTID":352,"name":"SBIマネープラザ 秋葉原支店","lon":139.77213699999999,"lat":35.701698999999998}},{"type":"Feature","id":353,"geometry":{"type":"Point","coordinates":[139.76682500000004,35.694728000000055]},"properties":{"OBJECTID":353,"name":"三井住友銀行 神田小川町出張所","lon":139.76682500000001,"lat":35.694727999999998}},{"type":"Feature","id":354,"geometry":{"type":"Point","coordinates":[139.76466400000004,35.683710000000076]},"properties":{"OBJECTID":354,"name":"三菱UFJ信託銀行 東京第4支店","lon":139.76466400000001,"lat":35.683709999999998}},{"type":"Feature","id":355,"geometry":{"type":"Point","coordinates":[139.74657200000001,35.698277000000076]},"properties":{"OBJECTID":355,"name":"東日本銀行 飯田橋支店","lon":139.74657199999999,"lat":35.698276999999997}},{"type":"Feature","id":356,"geometry":{"type":"Point","coordinates":[139.759184,35.673729000000037]},"properties":{"OBJECTID":356,"name":"ゆうちょ銀行本店東京ミッドタウン日比谷内出張所","lon":139.759184,"lat":35.673729000000002}},{"type":"Feature","id":357,"geometry":{"type":"Point","coordinates":[139.7647290000001,35.683576000000073]},"properties":{"OBJECTID":357,"name":"三菱UFJ信託銀行東京第5支店","lon":139.76472899999999,"lat":35.683576000000002}},{"type":"Feature","id":358,"geometry":{"type":"Point","coordinates":[139.7756710000001,35.695207000000039]},"properties":{"OBJECTID":358,"name":"愛媛銀行東京支店","lon":139.77567099999999,"lat":35.695207000000003}},{"type":"Feature","id":359,"geometry":{"type":"Point","coordinates":[139.77247700000009,35.701971000000071]},"properties":{"OBJECTID":359,"name":"興産信用金庫秋葉原支店","lon":139.77247700000001,"lat":35.701971}},{"type":"Feature","id":360,"geometry":{"type":"Point","coordinates":[139.7786430000001,35.695718000000056]},"properties":{"OBJECTID":360,"name":"朝日信用金庫豊島町支店","lon":139.77864299999999,"lat":35.695717999999999}},{"type":"Feature","id":361,"geometry":{"type":"Point","coordinates":[139.77024000000006,35.683130000000062]},"properties":{"OBJECTID":361,"name":"京都銀行東京営業部","lon":139.77024,"lat":35.683129999999998}},{"type":"Feature","id":362,"geometry":{"type":"Point","coordinates":[139.77624100000003,35.695899000000054]},"properties":{"OBJECTID":362,"name":"千葉銀行秋葉原支店","lon":139.776241,"lat":35.695898999999997}},{"type":"Feature","id":363,"geometry":{"type":"Point","coordinates":[139.77331500000003,35.691071000000079]},"properties":{"OBJECTID":363,"name":"福井銀行東京支店","lon":139.773315,"lat":35.691071000000001}},{"type":"Feature","id":364,"geometry":{"type":"Point","coordinates":[139.77185100000008,35.690557000000069]},"properties":{"OBJECTID":364,"name":"トマト銀行東京支店","lon":139.771851,"lat":35.690556999999998}},{"type":"Feature","id":365,"geometry":{"type":"Point","coordinates":[139.76812300000006,35.692074000000048]},"properties":{"OBJECTID":365,"name":"富山第一銀行東京支店","lon":139.768123,"lat":35.692073999999998}},{"type":"Feature","id":366,"geometry":{"type":"Point","coordinates":[139.76500800000008,35.691471000000035]},"properties":{"OBJECTID":366,"name":"四国銀行東京支店","lon":139.76500799999999,"lat":35.691471}},{"type":"Feature","id":367,"geometry":{"type":"Point","coordinates":[139.77200900000003,35.690270000000055]},"properties":{"OBJECTID":367,"name":"山梨中央銀行東京支店","lon":139.772009,"lat":35.690269999999998}},{"type":"Feature","id":368,"geometry":{"type":"Point","coordinates":[139.76338900000007,35.694175000000087]},"properties":{"OBJECTID":368,"name":"紀陽銀行東京支店","lon":139.76338899999999,"lat":35.694175000000001}},{"type":"Feature","id":369,"geometry":{"type":"Point","coordinates":[139.77595300000007,35.696361000000081]},"properties":{"OBJECTID":369,"name":"高知銀行東京支店","lon":139.77595299999999,"lat":35.696361000000003}},{"type":"Feature","id":370,"geometry":{"type":"Point","coordinates":[139.772919,35.693782000000056]},"properties":{"OBJECTID":370,"name":"東日本銀行神田支店","lon":139.772919,"lat":35.693781999999999}},{"type":"Feature","id":371,"geometry":{"type":"Point","coordinates":[139.76474800000005,35.693254000000081]},"properties":{"OBJECTID":371,"name":"北日本銀行東京支店","lon":139.764748,"lat":35.693254000000003}},{"type":"Feature","id":372,"geometry":{"type":"Point","coordinates":[139.7675650000001,35.691569000000072]},"properties":{"OBJECTID":372,"name":"長野銀行東京支店","lon":139.76756499999999,"lat":35.691569000000001}},{"type":"Feature","id":373,"geometry":{"type":"Point","coordinates":[139.77299600000003,35.690584000000058]},"properties":{"OBJECTID":373,"name":"南日本銀行東京支店","lon":139.77299600000001,"lat":35.690584000000001}},{"type":"Feature","id":374,"geometry":{"type":"Point","coordinates":[139.76744400000007,35.693129000000056]},"properties":{"OBJECTID":374,"name":"東京東信用金庫神田支店","lon":139.76744400000001,"lat":35.693128999999999}},{"type":"Feature","id":375,"geometry":{"type":"Point","coordinates":[139.7355950000001,35.689830000000086]},"properties":{"OBJECTID":375,"name":"興産信用金庫市ヶ谷支店","lon":139.73559499999999,"lat":35.689830000000001}},{"type":"Feature","id":376,"geometry":{"type":"Point","coordinates":[139.74884300000008,35.699145000000044]},"properties":{"OBJECTID":376,"name":"興産信用金庫飯田橋支店","lon":139.74884299999999,"lat":35.699145000000001}},{"type":"Feature","id":377,"geometry":{"type":"Point","coordinates":[139.77417500000001,35.692904000000055]},"properties":{"OBJECTID":377,"name":"興産信用金庫本店","lon":139.77417500000001,"lat":35.692903999999999}},{"type":"Feature","id":378,"geometry":{"type":"Point","coordinates":[139.77032700000007,35.694442000000038]},"properties":{"OBJECTID":378,"name":"芝信用金庫神田支店","lon":139.77032700000001,"lat":35.694442000000002}},{"type":"Feature","id":379,"geometry":{"type":"Point","coordinates":[139.76845000000003,35.695487000000071]},"properties":{"OBJECTID":379,"name":"西武信用金庫神田支店","lon":139.76845,"lat":35.695487}},{"type":"Feature","id":380,"geometry":{"type":"Point","coordinates":[139.7751750000001,35.700730000000078]},"properties":{"OBJECTID":380,"name":"東京シティ信用金庫秋葉原支店","lon":139.77517499999999,"lat":35.70073}},{"type":"Feature","id":381,"geometry":{"type":"Point","coordinates":[139.770217,35.692652000000066]},"properties":{"OBJECTID":381,"name":"城南信用金庫神田支店","lon":139.770217,"lat":35.692652000000002}},{"type":"Feature","id":382,"geometry":{"type":"Point","coordinates":[139.77168200000006,35.691027000000076]},"properties":{"OBJECTID":382,"name":"三井住友銀行神田駅前支店","lon":139.771682,"lat":35.691026999999998}},{"type":"Feature","id":383,"geometry":{"type":"Point","coordinates":[139.73202700000002,35.68567100000007]},"properties":{"OBJECTID":383,"name":"三井住友銀行麹町支店","lon":139.73202699999999,"lat":35.685670999999999}},{"type":"Feature","id":384,"geometry":{"type":"Point","coordinates":[139.76668700000005,35.68985100000009]},"properties":{"OBJECTID":384,"name":"城北信用金庫神田支店","lon":139.76668699999999,"lat":35.689850999999997}},{"type":"Feature","id":385,"geometry":{"type":"Point","coordinates":[139.76239500000008,35.685093000000052]},"properties":{"OBJECTID":385,"name":"三井住友銀行東京営業部","lon":139.762395,"lat":35.685093000000002}},{"type":"Feature","id":386,"geometry":{"type":"Point","coordinates":[139.73881800000004,35.684337000000085]},"properties":{"OBJECTID":386,"name":"みずほ銀行麹町支店","lon":139.73881800000001,"lat":35.684336999999999}},{"type":"Feature","id":387,"geometry":{"type":"Point","coordinates":[139.73562500000003,35.690801000000079]},"properties":{"OBJECTID":387,"name":"みずほ銀行市ヶ谷支店","lon":139.735625,"lat":35.690801}},{"type":"Feature","id":388,"geometry":{"type":"Point","coordinates":[139.74213100000009,35.678745000000049]},"properties":{"OBJECTID":388,"name":"みずほ銀行町村会館出張所","lon":139.742131,"lat":35.678744999999999}},{"type":"Feature","id":389,"geometry":{"type":"Point","coordinates":[139.76493200000004,35.684356000000037]},"properties":{"OBJECTID":389,"name":"三菱UFJ銀行東京営業部","lon":139.76493199999999,"lat":35.684356000000001}},{"type":"Feature","id":390,"geometry":{"type":"Point","coordinates":[139.76575500000001,35.684150000000045]},"properties":{"OBJECTID":390,"name":"中国人民銀行 東京代表處","lon":139.76575500000001,"lat":35.684150000000002}},{"type":"Feature","id":391,"geometry":{"type":"Point","coordinates":[139.7625220000001,35.680169000000035]},"properties":{"OBJECTID":391,"name":"印度銀行東京支店","lon":139.76252199999999,"lat":35.680168999999999}},{"type":"Feature","id":392,"geometry":{"type":"Point","coordinates":[139.767515,35.679870000000051]},"properties":{"OBJECTID":392,"name":"韓国産業銀行東京支店","lon":139.767515,"lat":35.679870000000001}},{"type":"Feature","id":393,"geometry":{"type":"Point","coordinates":[139.75538500000005,35.670575000000042]},"properties":{"OBJECTID":393,"name":"国際金融公社","lon":139.75538499999999,"lat":35.670574999999999}},{"type":"Feature","id":394,"geometry":{"type":"Point","coordinates":[139.76453600000002,35.685321000000044]},"properties":{"OBJECTID":394,"name":"みずほ銀行東京営業部","lon":139.76453599999999,"lat":35.685321000000002}},{"type":"Feature","id":395,"geometry":{"type":"Point","coordinates":[139.7406830000001,35.673183000000051]},"properties":{"OBJECTID":395,"name":"スタンダードチャータード銀行","lon":139.74068299999999,"lat":35.673183000000002}},{"type":"Feature","id":396,"geometry":{"type":"Point","coordinates":[139.7406830000001,35.673183000000051]},"properties":{"OBJECTID":396,"name":"ドイツ銀行東京支店","lon":139.74068299999999,"lat":35.673183000000002}},{"type":"Feature","id":397,"geometry":{"type":"Point","coordinates":[139.76453600000002,35.685321000000044]},"properties":{"OBJECTID":397,"name":"みずほ銀行東京都庁公営企業出張所","lon":139.76453599999999,"lat":35.685321000000002}},{"type":"Feature","id":398,"geometry":{"type":"Point","coordinates":[139.75775500000009,35.696435000000065]},"properties":{"OBJECTID":398,"name":"三菱UFJ銀行神保町支店","lon":139.757755,"lat":35.696435000000001}},{"type":"Feature","id":399,"geometry":{"type":"Point","coordinates":[139.73785400000008,35.683650000000057]},"properties":{"OBJECTID":399,"name":"三菱UFJ銀行麹町支店","lon":139.737854,"lat":35.68365}},{"type":"Feature","id":400,"geometry":{"type":"Point","coordinates":[139.76257200000009,35.676613000000089]},"properties":{"OBJECTID":400,"name":"三菱UFJ銀行日比谷支店","lon":139.76257200000001,"lat":35.676613000000003}},{"type":"Feature","id":401,"geometry":{"type":"Point","coordinates":[139.77587100000005,35.697977000000037]},"properties":{"OBJECTID":401,"name":"三菱UFJ銀行秋葉原駅前支店","lon":139.775871,"lat":35.697977000000002}},{"type":"Feature","id":402,"geometry":{"type":"Point","coordinates":[139.73785400000008,35.683650000000057]},"properties":{"OBJECTID":402,"name":"三菱UFJ銀行市ヶ谷支店","lon":139.737854,"lat":35.68365}},{"type":"Feature","id":403,"geometry":{"type":"Point","coordinates":[139.77103900000009,35.694068000000073]},"properties":{"OBJECTID":403,"name":"三菱UFJ銀行神田支店","lon":139.771039,"lat":35.694068000000001}},{"type":"Feature","id":404,"geometry":{"type":"Point","coordinates":[139.76061600000003,35.699751000000049]},"properties":{"OBJECTID":404,"name":"全国労働金庫協会","lon":139.760616,"lat":35.699750999999999}},{"type":"Feature","id":405,"geometry":{"type":"Point","coordinates":[139.74697500000002,35.672452000000078]},"properties":{"OBJECTID":405,"name":"中央労働金庫 霞が関支店","lon":139.74697499999999,"lat":35.672452}},{"type":"Feature","id":406,"geometry":{"type":"Point","coordinates":[139.76704500000005,35.685006000000044]},"properties":{"OBJECTID":406,"name":"中央労働金庫 大手町支店","lon":139.767045,"lat":35.685006000000001}},{"type":"Feature","id":407,"geometry":{"type":"Point","coordinates":[139.76964100000009,35.702438000000086]},"properties":{"OBJECTID":407,"name":"第一勧業信用組合 秋葉原支店","lon":139.76964100000001,"lat":35.702438000000001}},{"type":"Feature","id":408,"geometry":{"type":"Point","coordinates":[139.75746100000003,35.690919000000065]},"properties":{"OBJECTID":408,"name":"毎日信用組合","lon":139.75746100000001,"lat":35.690919000000001}},{"type":"Feature","id":409,"geometry":{"type":"Point","coordinates":[139.758869,35.694744000000071]},"properties":{"OBJECTID":409,"name":"文化産業信用組合 本部","lon":139.758869,"lat":35.694744}},{"type":"Feature","id":410,"geometry":{"type":"Point","coordinates":[139.75987700000007,35.700298000000089]},"properties":{"OBJECTID":410,"name":"東京都信用金庫健康保険組合","lon":139.75987699999999,"lat":35.700297999999997}},{"type":"Feature","id":411,"geometry":{"type":"Point","coordinates":[139.75213700000006,35.676764000000048]},"properties":{"OBJECTID":411,"name":"警視庁職員信用組合 本部","lon":139.752137,"lat":35.676763999999999}},{"type":"Feature","id":412,"geometry":{"type":"Point","coordinates":[139.74799900000005,35.684219000000041]},"properties":{"OBJECTID":412,"name":"警視庁信用組合宮内庁出張所","lon":139.74799899999999,"lat":35.684218999999999}},{"type":"Feature","id":413,"geometry":{"type":"Point","coordinates":[139.77946600000007,35.695042000000058]},"properties":{"OBJECTID":413,"name":"東浴信用組合","lon":139.77946600000001,"lat":35.695042000000001}},{"type":"Feature","id":414,"geometry":{"type":"Point","coordinates":[139.766885,35.683938000000069]},"properties":{"OBJECTID":414,"name":"ブラジル銀行 東京支店","lon":139.766885,"lat":35.683937999999998}},{"type":"Feature","id":415,"geometry":{"type":"Point","coordinates":[139.7616660000001,35.68855700000006]},"properties":{"OBJECTID":415,"name":"東京消防信用組合本店","lon":139.76166599999999,"lat":35.688557000000003}},{"type":"Feature","id":416,"geometry":{"type":"Point","coordinates":[139.77024000000006,35.683130000000062]},"properties":{"OBJECTID":416,"name":"ウニクレディト銀行東京支店","lon":139.77024,"lat":35.683129999999998}},{"type":"Feature","id":417,"geometry":{"type":"Point","coordinates":[139.75308900000005,35.701448000000084]},"properties":{"OBJECTID":417,"name":"中ノ郷信用組合三崎町支店","lon":139.75308899999999,"lat":35.701447999999999}},{"type":"Feature","id":418,"geometry":{"type":"Point","coordinates":[139.772919,35.693782000000056]},"properties":{"OBJECTID":418,"name":"東日本ATMサービスセンター","lon":139.772919,"lat":35.693781999999999}},{"type":"Feature","id":419,"geometry":{"type":"Point","coordinates":[139.76209300000005,35.676421000000062]},"properties":{"OBJECTID":419,"name":"KEBハナ銀行 東京支店","lon":139.76209299999999,"lat":35.676420999999998}},{"type":"Feature","id":420,"geometry":{"type":"Point","coordinates":[139.77024000000006,35.683130000000062]},"properties":{"OBJECTID":420,"name":"台湾中小企業銀行東京支店","lon":139.77024,"lat":35.683129999999998}},{"type":"Feature","id":421,"geometry":{"type":"Point","coordinates":[139.761933,35.680088000000069]},"properties":{"OBJECTID":421,"name":"兆豐國際商業銀行東京支店","lon":139.761933,"lat":35.680087999999998}},{"type":"Feature","id":422,"geometry":{"type":"Point","coordinates":[139.7406830000001,35.673183000000051]},"properties":{"OBJECTID":422,"name":"ユナイテッド・オーバーシーズ銀行","lon":139.74068299999999,"lat":35.673183000000002}},{"type":"Feature","id":423,"geometry":{"type":"Point","coordinates":[139.75538500000005,35.670575000000042]},"properties":{"OBJECTID":423,"name":"ビルバオ・ビスカヤ・アルヘンタリア銀行東京支店","lon":139.75538499999999,"lat":35.670574999999999}},{"type":"Feature","id":424,"geometry":{"type":"Point","coordinates":[139.76295200000004,35.685715000000073]},"properties":{"OBJECTID":424,"name":"第一商業銀行株式会社東京支店","lon":139.76295200000001,"lat":35.685715000000002}},{"type":"Feature","id":425,"geometry":{"type":"Point","coordinates":[139.75618400000008,35.694281000000046]},"properties":{"OBJECTID":425,"name":"中央労働金庫 一ツ橋支店","lon":139.75618399999999,"lat":35.694280999999997}},{"type":"Feature","id":426,"geometry":{"type":"Point","coordinates":[139.76592700000003,35.688288000000057]},"properties":{"OBJECTID":426,"name":"日本政策金融公庫 総合研究所 小企業研究グループ","lon":139.765927,"lat":35.688288}},{"type":"Feature","id":427,"geometry":{"type":"Point","coordinates":[139.73255100000006,35.684655000000078]},"properties":{"OBJECTID":427,"name":"株式会社あおぞら銀行 本店","lon":139.732551,"lat":35.684654999999999}},{"type":"Feature","id":428,"geometry":{"type":"Point","coordinates":[139.770039,35.69296200000008]},"properties":{"OBJECTID":428,"name":"琉球銀行東京住宅ローンセンター","lon":139.770039,"lat":35.692962000000001}},{"type":"Feature","id":429,"geometry":{"type":"Point","coordinates":[139.75622900000008,35.671886000000086]},"properties":{"OBJECTID":429,"name":"地方公共団体金融機構","lon":139.75622899999999,"lat":35.671886000000001}},{"type":"Feature","id":430,"geometry":{"type":"Point","coordinates":[139.7406830000001,35.673183000000051]},"properties":{"OBJECTID":430,"name":"オーバーシー・チャイニーズ銀行東京支店","lon":139.74068299999999,"lat":35.673183000000002}},{"type":"Feature","id":431,"geometry":{"type":"Point","coordinates":[139.76361100000008,35.684132000000034]},"properties":{"OBJECTID":431,"name":"全国銀行協会(一般社団法人)","lon":139.763611,"lat":35.684131999999998}},{"type":"Feature","id":432,"geometry":{"type":"Point","coordinates":[139.76432900000009,35.678609000000051]},"properties":{"OBJECTID":432,"name":"外貨両替専門店ワールドカレンシーショップ 三菱UFJ銀行本店","lon":139.764329,"lat":35.678609000000002}},{"type":"Feature","id":433,"geometry":{"type":"Point","coordinates":[139.7786430000001,35.695718000000056]},"properties":{"OBJECTID":433,"name":"朝日スマートアプリサポートセンター","lon":139.77864299999999,"lat":35.695717999999999}},{"type":"Feature","id":434,"geometry":{"type":"Point","coordinates":[139.77633100000003,35.698610000000087]},"properties":{"OBJECTID":434,"name":"ファミリーマート秋葉原駅前1号機 共同出張所(イーネットATM)","lon":139.776331,"lat":35.698610000000002}},{"type":"Feature","id":435,"geometry":{"type":"Point","coordinates":[139.764184,35.699037000000089]},"properties":{"OBJECTID":435,"name":"生活彩家御茶ノ水駅前 共同出張所(イーネットATM)","lon":139.764184,"lat":35.699036999999997}},{"type":"Feature","id":436,"geometry":{"type":"Point","coordinates":[139.76916100000005,35.689119000000062]},"properties":{"OBJECTID":436,"name":"全国地方銀行協会(一般社団法人)","lon":139.769161,"lat":35.689118999999998}},{"type":"Feature","id":437,"geometry":{"type":"Point","coordinates":[139.77191600000003,35.69615900000008]},"properties":{"OBJECTID":437,"name":"ファミリーマート神田須田町二丁目 共同出張所(イーネットATM)","lon":139.771916,"lat":35.696159000000002}},{"type":"Feature","id":438,"geometry":{"type":"Point","coordinates":[139.766885,35.678055000000086]},"properties":{"OBJECTID":438,"name":"ファミリーマートPCP丸の内 共同出張所(イーネットATM)","lon":139.766885,"lat":35.678055000000001}},{"type":"Feature","id":439,"geometry":{"type":"Point","coordinates":[139.73984300000006,35.691189000000065]},"properties":{"OBJECTID":439,"name":"リコス九段南4丁目 共同出張所(イーネットATM)","lon":139.73984300000001,"lat":35.691189000000001}},{"type":"Feature","id":440,"geometry":{"type":"Point","coordinates":[139.77194900000006,35.70074100000005]},"properties":{"OBJECTID":440,"name":"ドン・キホーテ秋葉原 共同出張所(イーネットATM)","lon":139.77194900000001,"lat":35.700741000000001}},{"type":"Feature","id":441,"geometry":{"type":"Point","coordinates":[139.76485500000001,35.686398000000054]},"properties":{"OBJECTID":441,"name":"東京メトロ東西線大手町駅 共同出張所(イーネットATM)","lon":139.76485500000001,"lat":35.686397999999997}},{"type":"Feature","id":442,"geometry":{"type":"Point","coordinates":[139.73614300000008,35.692623000000083]},"properties":{"OBJECTID":442,"name":"東京メトロ有楽町線市ヶ谷駅 共同出張所(イーネットATM)","lon":139.736143,"lat":35.692622999999998}},{"type":"Feature","id":443,"geometry":{"type":"Point","coordinates":[139.76696500000003,35.685907000000043]},"properties":{"OBJECTID":443,"name":"生活彩家アーバンネット大手町 共同出張所(イーネットATM)","lon":139.766965,"lat":35.685907}},{"type":"Feature","id":444,"geometry":{"type":"Point","coordinates":[139.77367700000002,35.69787000000008]},"properties":{"OBJECTID":444,"name":"生活彩家秋葉原駅前2号機 共同出張所(イーネットATM)","lon":139.77367699999999,"lat":35.697870000000002}},{"type":"Feature","id":445,"geometry":{"type":"Point","coordinates":[139.77367700000002,35.69787000000008]},"properties":{"OBJECTID":445,"name":"生活彩家秋葉原駅前1号機 共同出張所(イーネットATM)","lon":139.77367699999999,"lat":35.697870000000002}},{"type":"Feature","id":446,"geometry":{"type":"Point","coordinates":[139.76120600000002,35.691786000000036]},"properties":{"OBJECTID":446,"name":"生活彩家神田錦町 共同出張所(イーネットATM)","lon":139.76120599999999,"lat":35.691786}},{"type":"Feature","id":447,"geometry":{"type":"Point","coordinates":[139.78014500000006,35.699870000000089]},"properties":{"OBJECTID":447,"name":"ライフ神田和泉町 共同出張所(イーネットATM)","lon":139.780145,"lat":35.699869999999997}},{"type":"Feature","id":448,"geometry":{"type":"Point","coordinates":[139.77894700000002,35.693148000000065]},"properties":{"OBJECTID":448,"name":"デイリーヤマザキ神田岩本町 共同出張所(イーネットATM)","lon":139.77894699999999,"lat":35.693148000000001}},{"type":"Feature","id":449,"geometry":{"type":"Point","coordinates":[139.7486550000001,35.700394000000074]},"properties":{"OBJECTID":449,"name":"ファミリーマート飯田橋三丁目 共同出張所(イーネットATM)","lon":139.74865500000001,"lat":35.700394000000003}},{"type":"Feature","id":450,"geometry":{"type":"Point","coordinates":[139.76388000000009,35.695847000000072]},"properties":{"OBJECTID":450,"name":"ファミリーマート神田駿河台三丁目 共同出張所(イーネットATM)","lon":139.76388,"lat":35.695847000000001}},{"type":"Feature","id":451,"geometry":{"type":"Point","coordinates":[139.74965600000007,35.699031000000048]},"properties":{"OBJECTID":451,"name":"ファミリーマート飯田橋二丁目 共同出張所(イーネットATM)","lon":139.74965599999999,"lat":35.699030999999998}},{"type":"Feature","id":452,"geometry":{"type":"Point","coordinates":[139.745045,35.69364900000005]},"properties":{"OBJECTID":452,"name":"ファミリーマート九段南二丁目 共同出張所(イーネットATM)","lon":139.745045,"lat":35.693649000000001}},{"type":"Feature","id":453,"geometry":{"type":"Point","coordinates":[139.77667000000008,35.695143000000087]},"properties":{"OBJECTID":453,"name":"デイリーヤマザキ岩本町3丁目 共同出張所(イーネットATM)","lon":139.77667,"lat":35.695143000000002}},{"type":"Feature","id":454,"geometry":{"type":"Point","coordinates":[139.77595300000007,35.696361000000081]},"properties":{"OBJECTID":454,"name":"デイリーヤマザキ岩本町和泉橋 共同出張所(イーネットATM)","lon":139.77595299999999,"lat":35.696361000000003}},{"type":"Feature","id":455,"geometry":{"type":"Point","coordinates":[139.76970100000005,35.692545000000052]},"properties":{"OBJECTID":455,"name":"ファミリーマート神田駅北 共同出張所(イーネットATM)","lon":139.769701,"lat":35.692545000000003}},{"type":"Feature","id":456,"geometry":{"type":"Point","coordinates":[139.78082700000004,35.695589000000041]},"properties":{"OBJECTID":456,"name":"ファミリーマート東神田二丁目 共同出張所(イーネットATM)","lon":139.78082699999999,"lat":35.695588999999998}},{"type":"Feature","id":457,"geometry":{"type":"Point","coordinates":[139.75316900000007,35.701624000000038]},"properties":{"OBJECTID":457,"name":"ファミリーマート水道橋駅西口1号機 共同出張所(イーネットATM)","lon":139.75316900000001,"lat":35.701624000000002}},{"type":"Feature","id":458,"geometry":{"type":"Point","coordinates":[139.76672600000006,35.698507000000063]},"properties":{"OBJECTID":458,"name":"ファミリーマートファミマ御茶ノ水ソラシティ 共同出張所(イーネットATM)","lon":139.76672600000001,"lat":35.698506999999999}},{"type":"Feature","id":459,"geometry":{"type":"Point","coordinates":[139.77689000000009,35.70034000000004]},"properties":{"OBJECTID":459,"name":"ファミリーマート神田和泉町 共同出張所(イーネットATM)","lon":139.77689000000001,"lat":35.700339999999997}},{"type":"Feature","id":460,"geometry":{"type":"Point","coordinates":[139.77155800000003,35.704210000000046]},"properties":{"OBJECTID":460,"name":"ファミリーマートファーマライズ薬局末広町 共同出張所(イーネットATM)","lon":139.771558,"lat":35.704210000000003}},{"type":"Feature","id":461,"geometry":{"type":"Point","coordinates":[139.77421400000003,35.697905000000048]},"properties":{"OBJECTID":461,"name":"ファミリーマート秋葉原駅中央口前 共同出張所(イーネットATM)","lon":139.774214,"lat":35.697904999999999}},{"type":"Feature","id":462,"geometry":{"type":"Point","coordinates":[139.76744400000007,35.697146000000089]},"properties":{"OBJECTID":462,"name":"ファミリーマートホテルマイステイズ御茶ノ水 共同出張所(イーネットATM)","lon":139.76744400000001,"lat":35.697145999999996}},{"type":"Feature","id":463,"geometry":{"type":"Point","coordinates":[139.7798160000001,35.69745800000004]},"properties":{"OBJECTID":463,"name":"ファミリーマート神田佐久間町 共同出張所(イーネットATM)","lon":139.77981600000001,"lat":35.697457999999997}},{"type":"Feature","id":464,"geometry":{"type":"Point","coordinates":[139.7379360000001,35.679993000000081]},"properties":{"OBJECTID":464,"name":"ファミリーマートファミマ東京ガーデンテラス1号機 共同出張所(イーネットATM)","lon":139.73793599999999,"lat":35.679993000000003}},{"type":"Feature","id":465,"geometry":{"type":"Point","coordinates":[139.7379360000001,35.679993000000081]},"properties":{"OBJECTID":465,"name":"ファミリーマートファミマ東京ガーデンテラス2号機 共同出張所(イーネットATM)","lon":139.73793599999999,"lat":35.679993000000003}},{"type":"Feature","id":466,"geometry":{"type":"Point","coordinates":[139.7689190000001,35.684503000000063]},"properties":{"OBJECTID":466,"name":"ファミリーマート朝日生命大手町ビル 共同出張所(イーネットATM)","lon":139.76891900000001,"lat":35.684502999999999}},{"type":"Feature","id":467,"geometry":{"type":"Point","coordinates":[139.76744400000007,35.697146000000089]},"properties":{"OBJECTID":467,"name":"ファミリーマートワテラスタワー前 共同出張所(イーネットATM)","lon":139.76744400000001,"lat":35.697145999999996}},{"type":"Feature","id":468,"geometry":{"type":"Point","coordinates":[139.76180800000009,35.699346000000048]},"properties":{"OBJECTID":468,"name":"ファミリーマート御茶ノ水駅前1号機 共同出張所(イーネットATM)","lon":139.761808,"lat":35.699345999999998}},{"type":"Feature","id":469,"geometry":{"type":"Point","coordinates":[139.76180800000009,35.699346000000048]},"properties":{"OBJECTID":469,"name":"ファミリーマート御茶ノ水駅前2号機 共同出張所(イーネットATM)","lon":139.761808,"lat":35.699345999999998}},