{"type":"FeatureCollection","features":[{"type":"Feature","id":1,"geometry":{"type":"Point","coordinates":[139.74294200000008,35.674407000000087]},"properties":{"OBJECTID":1,"name":"セブンイレブン 衆議院第一議員会館店","lon":139.742942,"lat":35.674407000000002}},{"type":"Feature","id":2,"geometry":{"type":"Point","coordinates":[139.76233300000001,35.687637000000052]},"properties":{"OBJECTID":2,"name":"セブンイレブン AIM三井物産ビル店","lon":139.76233300000001,"lat":35.687637000000002}},{"type":"Feature","id":3,"geometry":{"type":"Point","coordinates":[139.74737400000004,35.701445000000035]},"properties":{"OBJECTID":3,"name":"ファミリーマート 東京区政会館店","lon":139.74737400000001,"lat":35.701445}},{"type":"Feature","id":4,"geometry":{"type":"Point","coordinates":[139.77146200000004,35.691530000000057]},"properties":{"OBJECTID":4,"name":"ローソン 神田駅東口店","lon":139.77146200000001,"lat":35.69153}},{"type":"Feature","id":5,"geometry":{"type":"Point","coordinates":[139.75362800000005,35.674319000000082]},"properties":{"OBJECTID":5,"name":"生活彩家 弁護士会館店","lon":139.75362799999999,"lat":35.674318999999997}},{"type":"Feature","id":6,"geometry":{"type":"Point","coordinates":[139.76320400000009,35.693125000000066]},"properties":{"OBJECTID":6,"name":"ローソン 神田スクエア店","lon":139.763204,"lat":35.693125000000002}},{"type":"Feature","id":7,"geometry":{"type":"Point","coordinates":[139.75360499999999,35.670812000000069]},"properties":{"OBJECTID":7,"name":"セブンイレブン 日比谷パークフロント店","lon":139.75360499999999,"lat":35.670811999999998}},{"type":"Feature","id":8,"geometry":{"type":"Point","coordinates":[139.76449500000001,35.692303000000038]},"properties":{"OBJECTID":8,"name":"ミニストップ 神田錦町1丁目店","lon":139.76449500000001,"lat":35.692303000000003}},{"type":"Feature","id":9,"geometry":{"type":"Point","coordinates":[139.77074900000002,35.691820000000064]},"properties":{"OBJECTID":9,"name":"セブンイレブン 神田駅北口店","lon":139.770749,"lat":35.69182}},{"type":"Feature","id":10,"geometry":{"type":"Point","coordinates":[139.77118000000007,35.69105600000006]},"properties":{"OBJECTID":10,"name":"セブンイレブン 神田駅南口店","lon":139.77117999999999,"lat":35.691056000000003}},{"type":"Feature","id":11,"geometry":{"type":"Point","coordinates":[139.7407740000001,35.673969000000056]},"properties":{"OBJECTID":11,"name":"セブンイレブン 東急キャピトルタワー店","lon":139.74077399999999,"lat":35.673969}},{"type":"Feature","id":12,"geometry":{"type":"Point","coordinates":[139.77395799999999,35.699291000000073]},"properties":{"OBJECTID":12,"name":"セブンイレブン 秋葉原センタープレイス店","lon":139.77395799999999,"lat":35.699291000000002}},{"type":"Feature","id":13,"geometry":{"type":"Point","coordinates":[139.76233300000001,35.687637000000052]},"properties":{"OBJECTID":13,"name":"セブンイレブン Otemachi One タワ店","lon":139.76233300000001,"lat":35.687637000000002}},{"type":"Feature","id":14,"geometry":{"type":"Point","coordinates":[139.77058700000009,35.684055000000058]},"properties":{"OBJECTID":14,"name":"セブンイレブン 常盤橋タワー3F店","lon":139.77058700000001,"lat":35.684055000000001}},{"type":"Feature","id":15,"geometry":{"type":"Point","coordinates":[139.73556700000006,35.691012000000057]},"properties":{"OBJECTID":15,"name":"NewDays(ニューデイズ) 市ヶ谷店","lon":139.735567,"lat":35.691012000000001}},{"type":"Feature","id":16,"geometry":{"type":"Point","coordinates":[139.76044100000001,35.689895000000035]},"properties":{"OBJECTID":16,"name":"ファミリーマート ファミマ大手町パークビル店","lon":139.76044099999999,"lat":35.689895}},{"type":"Feature","id":17,"geometry":{"type":"Point","coordinates":[139.73674200000005,35.682357000000081]},"properties":{"OBJECTID":17,"name":"ファミリーマート 紀尾井町ビル店","lon":139.73674199999999,"lat":35.682357000000003}},{"type":"Feature","id":18,"geometry":{"type":"Point","coordinates":[139.73406800000009,35.68103300000007]},"properties":{"OBJECTID":18,"name":"ファミリーマート ガーデンコート店","lon":139.73406800000001,"lat":35.681032999999999}},{"type":"Feature","id":19,"geometry":{"type":"Point","coordinates":[139.74724100000003,35.671183000000042]},"properties":{"OBJECTID":19,"name":"ファミリーマート ファミマ霞が関ビルディング店","lon":139.747241,"lat":35.671182999999999}},{"type":"Feature","id":20,"geometry":{"type":"Point","coordinates":[139.76712500000008,35.681236000000069]},"properties":{"OBJECTID":20,"name":"NEWDAYS MINI(ニューデイズミニ) 東ホ5C店","lon":139.76712499999999,"lat":35.681235999999998}},{"type":"Feature","id":21,"geometry":{"type":"Point","coordinates":[139.7625220000001,35.680169000000035]},"properties":{"OBJECTID":21,"name":"ローソン 丸の内仲通りビル店","lon":139.76252199999999,"lat":35.680168999999999}},{"type":"Feature","id":22,"geometry":{"type":"Point","coordinates":[139.763553,35.688662000000079]},"properties":{"OBJECTID":22,"name":"セブンイレブン 大手町カンファレンスセンター店","lon":139.763553,"lat":35.688662000000001}},{"type":"Feature","id":23,"geometry":{"type":"Point","coordinates":[139.75762700000007,35.695932000000084]},"properties":{"OBJECTID":23,"name":"ローソン 神保町メトロピア店","lon":139.75762700000001,"lat":35.695931999999999}},{"type":"Feature","id":24,"geometry":{"type":"Point","coordinates":[139.73407100000009,35.685625000000073]},"properties":{"OBJECTID":24,"name":"セブンイレブン 千代田二番町店","lon":139.734071,"lat":35.685625000000002}},{"type":"Feature","id":25,"geometry":{"type":"Point","coordinates":[139.77407400000004,35.700306000000069]},"properties":{"OBJECTID":25,"name":"ファミリーマート 秋葉原富士ソフトビル店","lon":139.77407400000001,"lat":35.700305999999998}},{"type":"Feature","id":26,"geometry":{"type":"Point","coordinates":[139.75123300000007,35.694446000000084]},"properties":{"OBJECTID":26,"name":"ファミリーマート 九段会館テラス店","lon":139.75123300000001,"lat":35.694445999999999}},{"type":"Feature","id":27,"geometry":{"type":"Point","coordinates":[139.75090299999999,35.672239000000047]},"properties":{"OBJECTID":27,"name":"ファミリーマート 経済産業省店","lon":139.75090299999999,"lat":35.672238999999998}},{"type":"Feature","id":28,"geometry":{"type":"Point","coordinates":[139.767515,35.679870000000051]},"properties":{"OBJECTID":28,"name":"ニューデイズ八重洲中央改札内","lon":139.767515,"lat":35.679870000000001}},{"type":"Feature","id":29,"geometry":{"type":"Point","coordinates":[139.76412600000003,35.673800000000085]},"properties":{"OBJECTID":29,"name":"セブンイレブン 有楽町イトシア店","lon":139.764126,"lat":35.6738}},{"type":"Feature","id":30,"geometry":{"type":"Point","coordinates":[139.76848300000006,35.683718000000056]},"properties":{"OBJECTID":30,"name":"ファミリーマート ファミマサピアタワー店","lon":139.768483,"lat":35.683717999999999}},{"type":"Feature","id":31,"geometry":{"type":"Point","coordinates":[139.7595,35.692709000000036]},"properties":{"OBJECTID":31,"name":"ミニストップ 神田錦町3丁目店","lon":139.7595,"lat":35.692709000000001}},{"type":"Feature","id":32,"geometry":{"type":"Point","coordinates":[139.77643399999999,35.693542000000036]},"properties":{"OBJECTID":32,"name":"ミニストップ 岩本町2丁目店","lon":139.77643399999999,"lat":35.693542000000001}},{"type":"Feature","id":33,"geometry":{"type":"Point","coordinates":[139.75191200000006,35.69489800000008]},"properties":{"OBJECTID":33,"name":"ミニストップ 九段南1丁目店","lon":139.751912,"lat":35.694898000000002}},{"type":"Feature","id":34,"geometry":{"type":"Point","coordinates":[139.74479500000007,35.69907500000005]},"properties":{"OBJECTID":34,"name":"ミニストップ 飯田橋駅西口店","lon":139.74479500000001,"lat":35.699075000000001}},{"type":"Feature","id":35,"geometry":{"type":"Point","coordinates":[139.73952500000007,35.691091000000085]},"properties":{"OBJECTID":35,"name":"ミニストップ 九段南4丁目店","lon":139.73952499999999,"lat":35.691091}},{"type":"Feature","id":36,"geometry":{"type":"Point","coordinates":[139.7600900000001,35.69633500000009]},"properties":{"OBJECTID":36,"name":"ミニストップ 神田神保町1丁目店","lon":139.76008999999999,"lat":35.696334999999998}},{"type":"Feature","id":37,"geometry":{"type":"Point","coordinates":[139.77331500000003,35.691071000000079]},"properties":{"OBJECTID":37,"name":"ミニストップ 神田鍛冶町店","lon":139.773315,"lat":35.691071000000001}},{"type":"Feature","id":38,"geometry":{"type":"Point","coordinates":[139.76564700000006,35.693736000000058]},"properties":{"OBJECTID":38,"name":"ミニストップ 神田美土代町店","lon":139.765647,"lat":35.693736000000001}},{"type":"Feature","id":39,"geometry":{"type":"Point","coordinates":[139.77546700000005,35.694168000000047]},"properties":{"OBJECTID":39,"name":"cisca 岩本町店","lon":139.77546699999999,"lat":35.694167999999998}},{"type":"Feature","id":40,"geometry":{"type":"Point","coordinates":[139.76888200000008,35.68151000000006]},"properties":{"OBJECTID":40,"name":"cisca グラントウキョウ店","lon":139.76888199999999,"lat":35.681510000000003}},{"type":"Feature","id":41,"geometry":{"type":"Point","coordinates":[139.74794300000008,35.671796000000086]},"properties":{"OBJECTID":41,"name":"cisca 霞が関コモンゲート店","lon":139.74794299999999,"lat":35.671796000000001}},{"type":"Feature","id":42,"geometry":{"type":"Point","coordinates":[139.73321200000009,35.685226000000057]},"properties":{"OBJECTID":42,"name":"ポプラ 麹町店","lon":139.73321200000001,"lat":35.685226}},{"type":"Feature","id":43,"geometry":{"type":"Point","coordinates":[139.77342900000008,35.694862000000057]},"properties":{"OBJECTID":43,"name":"スリーエイト 神田東店","lon":139.77342899999999,"lat":35.694862000000001}},{"type":"Feature","id":44,"geometry":{"type":"Point","coordinates":[139.74345500000004,35.692222000000072]},"properties":{"OBJECTID":44,"name":"セブンイレブン 九段南大妻通り店","lon":139.74345500000001,"lat":35.692222000000001}},{"type":"Feature","id":45,"geometry":{"type":"Point","coordinates":[139.76486900000009,35.694768000000067]},"properties":{"OBJECTID":45,"name":"セブンイレブン 神田小川町2丁目店","lon":139.764869,"lat":35.694768000000003}},{"type":"Feature","id":46,"geometry":{"type":"Point","coordinates":[139.76194600000008,35.700196000000062]},"properties":{"OBJECTID":46,"name":"セブンイレブン 駿河台三楽病院店","lon":139.76194599999999,"lat":35.700195999999998}},{"type":"Feature","id":47,"geometry":{"type":"Point","coordinates":[139.764274,35.698939000000053]},"properties":{"OBJECTID":47,"name":"生活彩家 御茶の水駅前店","lon":139.764274,"lat":35.698939000000003}},{"type":"Feature","id":48,"geometry":{"type":"Point","coordinates":[139.75618400000008,35.694281000000046]},"properties":{"OBJECTID":48,"name":"セブンイレブン 千代田一ツ橋2丁目店","lon":139.75618399999999,"lat":35.694280999999997}},{"type":"Feature","id":49,"geometry":{"type":"Point","coordinates":[139.76691900000003,35.690806000000066]},"properties":{"OBJECTID":49,"name":"セブンイレブン 内神田1丁目店","lon":139.766919,"lat":35.690806000000002}},{"type":"Feature","id":50,"geometry":{"type":"Point","coordinates":[139.76273200000003,35.681556000000057]},"properties":{"OBJECTID":50,"name":"セブンイレブン 丸の内郵船ビル店","lon":139.762732,"lat":35.681556}},{"type":"Feature","id":51,"geometry":{"type":"Point","coordinates":[139.73675300000002,35.683294000000046]},"properties":{"OBJECTID":51,"name":"セブンイレブン 千代田区麹町4丁目店","lon":139.73675299999999,"lat":35.683293999999997}},{"type":"Feature","id":52,"geometry":{"type":"Point","coordinates":[139.75834000000009,35.67240600000008]},"properties":{"OBJECTID":52,"name":"セブンイレブン 7FS内幸町1丁目店","lon":139.75834,"lat":35.672406000000002}},{"type":"Feature","id":53,"geometry":{"type":"Point","coordinates":[139.76752400000009,35.689790000000073]},"properties":{"OBJECTID":53,"name":"セブンイレブン 内神田2丁目店","lon":139.76752400000001,"lat":35.689790000000002}},{"type":"Feature","id":54,"geometry":{"type":"Point","coordinates":[139.74564400000008,35.67083000000008]},"properties":{"OBJECTID":54,"name":"セブンイレブン 特許庁店","lon":139.745644,"lat":35.670830000000002}},{"type":"Feature","id":55,"geometry":{"type":"Point","coordinates":[139.73750100000007,35.677174000000036]},"properties":{"OBJECTID":55,"name":"セブンイレブン 赤坂東急プラザ店","lon":139.73750100000001,"lat":35.677174000000001}},{"type":"Feature","id":56,"geometry":{"type":"Point","coordinates":[139.74601300000006,35.699676000000068]},"properties":{"OBJECTID":56,"name":"セブンイレブン 千代田大神宮通り店","lon":139.746013,"lat":35.699675999999997}},{"type":"Feature","id":57,"geometry":{"type":"Point","coordinates":[139.77587100000005,35.700273000000038]},"properties":{"OBJECTID":57,"name":"セブンイレブン 神田和泉町店","lon":139.775871,"lat":35.700273000000003}},{"type":"Feature","id":58,"geometry":{"type":"Point","coordinates":[139.732754,35.684196000000043]},"properties":{"OBJECTID":58,"name":"セブンイレブン 上智大学店","lon":139.732754,"lat":35.684196}},{"type":"Feature","id":59,"geometry":{"type":"Point","coordinates":[139.74043400000005,35.679123000000061]},"properties":{"OBJECTID":59,"name":"セブンイレブン 千代田平河町2丁目店","lon":139.74043399999999,"lat":35.679122999999997}},{"type":"Feature","id":60,"geometry":{"type":"Point","coordinates":[139.74211100000002,35.687398000000087]},"properties":{"OBJECTID":60,"name":"セブンイレブン 千代田一番町店","lon":139.74211099999999,"lat":35.687398000000002}},{"type":"Feature","id":61,"geometry":{"type":"Point","coordinates":[139.77640500000007,35.697883000000047]},"properties":{"OBJECTID":61,"name":"セブンイレブン 秋葉原昭和通り店","lon":139.77640500000001,"lat":35.697882999999997}},{"type":"Feature","id":62,"geometry":{"type":"Point","coordinates":[139.76793700000007,35.697582000000068]},"properties":{"OBJECTID":62,"name":"セブンイレブン 神田淡路町ワテラス店","lon":139.76793699999999,"lat":35.697581999999997}},{"type":"Feature","id":63,"geometry":{"type":"Point","coordinates":[139.74229000000003,35.676514000000054]},"properties":{"OBJECTID":63,"name":"セブンイレブン 参議院議員会館店","lon":139.74229,"lat":35.676513999999997}},{"type":"Feature","id":64,"geometry":{"type":"Point","coordinates":[139.74143600000002,35.696228000000076]},"properties":{"OBJECTID":64,"name":"セブンイレブン 法政大学市ヶ谷キャンパス店","lon":139.74143599999999,"lat":35.696227999999998}},{"type":"Feature","id":65,"geometry":{"type":"Point","coordinates":[139.77808900000002,35.693254000000081]},"properties":{"OBJECTID":65,"name":"セブンイレブン 千代田岩本町2丁目店","lon":139.77808899999999,"lat":35.693254000000003}},{"type":"Feature","id":66,"geometry":{"type":"Point","coordinates":[139.76493200000004,35.684356000000037]},"properties":{"OBJECTID":66,"name":"セブンイレブン 丸の内永楽ビル店","lon":139.76493199999999,"lat":35.684356000000001}},{"type":"Feature","id":67,"geometry":{"type":"Point","coordinates":[139.76122100000009,35.684500000000071]},"properties":{"OBJECTID":67,"name":"セブンイレブン 丸の内パレスビル店","lon":139.76122100000001,"lat":35.6845}},{"type":"Feature","id":68,"geometry":{"type":"Point","coordinates":[139.73347699999999,35.684415000000058]},"properties":{"OBJECTID":68,"name":"セブンイレブン 麹町5丁目店","lon":139.73347699999999,"lat":35.684415000000001}},{"type":"Feature","id":69,"geometry":{"type":"Point","coordinates":[139.74261000000001,35.675495000000069]},"properties":{"OBJECTID":69,"name":"セブンイレブン 衆議院第二議員会館店","lon":139.74261000000001,"lat":35.675494999999998}},{"type":"Feature","id":70,"geometry":{"type":"Point","coordinates":[139.767922,35.695297000000039]},"properties":{"OBJECTID":70,"name":"セブンイレブン 神田須田町1丁目店","lon":139.767922,"lat":35.695296999999997}},{"type":"Feature","id":71,"geometry":{"type":"Point","coordinates":[139.77227700000003,35.702705000000037]},"properties":{"OBJECTID":71,"name":"セブンイレブン 外神田4丁目店","lon":139.772277,"lat":35.702705000000002}},{"type":"Feature","id":72,"geometry":{"type":"Point","coordinates":[139.75775500000009,35.696435000000065]},"properties":{"OBJECTID":72,"name":"セブンイレブン 神田神保町2丁目店","lon":139.757755,"lat":35.696435000000001}},{"type":"Feature","id":73,"geometry":{"type":"Point","coordinates":[139.77245600000003,35.690601000000072]},"properties":{"OBJECTID":73,"name":"セブンイレブン 千代田鍛冶町1丁目店","lon":139.77245600000001,"lat":35.690601000000001}},{"type":"Feature","id":74,"geometry":{"type":"Point","coordinates":[139.76737200000002,35.678963000000067]},"properties":{"OBJECTID":74,"name":"セブンイレブン リクルートサウスタワー店","lon":139.76737199999999,"lat":35.678963000000003}},{"type":"Feature","id":75,"geometry":{"type":"Point","coordinates":[139.75487100000009,35.697590000000048]},"properties":{"OBJECTID":75,"name":"セブンイレブン 神田専大通り店","lon":139.75487100000001,"lat":35.697589999999998}},{"type":"Feature","id":76,"geometry":{"type":"Point","coordinates":[139.76057900000001,35.692134000000067]},"properties":{"OBJECTID":76,"name":"セブンイレブン 神田錦町千代田通り店","lon":139.76057900000001,"lat":35.692134000000003}},{"type":"Feature","id":77,"geometry":{"type":"Point","coordinates":[139.76073600000007,35.69244800000007]},"properties":{"OBJECTID":77,"name":"セブンイレブン 神田錦町3丁目店","lon":139.76073600000001,"lat":35.692447999999999}},{"type":"Feature","id":78,"geometry":{"type":"Point","coordinates":[139.76468900000009,35.697153000000071]},"properties":{"OBJECTID":78,"name":"セブンイレブン AIM三井住友海上火災保険新館店","lon":139.764689,"lat":35.697153}},{"type":"Feature","id":79,"geometry":{"type":"Point","coordinates":[139.764409,35.682587000000069]},"properties":{"OBJECTID":79,"name":"セブンイレブン 新丸ビル店","lon":139.764409,"lat":35.682586999999998}},{"type":"Feature","id":80,"geometry":{"type":"Point","coordinates":[139.75576700000011,35.699940000000083]},"properties":{"OBJECTID":80,"name":"セブンイレブン 千代田三崎町白山通り店","lon":139.75576699999999,"lat":35.699939999999998}},{"type":"Feature","id":81,"geometry":{"type":"Point","coordinates":[139.75908800000002,35.695544000000041]},"properties":{"OBJECTID":81,"name":"セブンイレブン 神田すずらん通り店","lon":139.75908799999999,"lat":35.695543999999998}},{"type":"Feature","id":82,"geometry":{"type":"Point","coordinates":[139.764409,35.682587000000069]},"properties":{"OBJECTID":82,"name":"セブンイレブン 新丸ビルフロアナイン店","lon":139.764409,"lat":35.682586999999998}},{"type":"Feature","id":83,"geometry":{"type":"Point","coordinates":[139.77411400000005,35.699784000000079]},"properties":{"OBJECTID":83,"name":"セブンイレブン 秋葉原駅北店","lon":139.774114,"lat":35.699784000000001}},{"type":"Feature","id":84,"geometry":{"type":"Point","coordinates":[139.73848800000007,35.683120000000088]},"properties":{"OBJECTID":84,"name":"セブンイレブン 千代田区麹町3丁目店","lon":139.73848799999999,"lat":35.683120000000002}},{"type":"Feature","id":85,"geometry":{"type":"Point","coordinates":[139.73407100000009,35.685625000000073]},"properties":{"OBJECTID":85,"name":"セブンイレブン 7FSガーデンビル店","lon":139.734071,"lat":35.685625000000002}},{"type":"Feature","id":86,"geometry":{"type":"Point","coordinates":[139.75050900000008,35.700406000000044]},"properties":{"OBJECTID":86,"name":"セブンイレブン KDDI本社店","lon":139.75050899999999,"lat":35.700406000000001}},{"type":"Feature","id":87,"geometry":{"type":"Point","coordinates":[139.75123300000007,35.699179000000072]},"properties":{"OBJECTID":87,"name":"セブンイレブン 大和ハウス九段ビル店","lon":139.75123300000001,"lat":35.699179000000001}},{"type":"Feature","id":88,"geometry":{"type":"Point","coordinates":[139.75267000000008,35.670921000000078]},"properties":{"OBJECTID":88,"name":"セブンイレブン 内幸町2丁目店","lon":139.75266999999999,"lat":35.670921}},{"type":"Feature","id":89,"geometry":{"type":"Point","coordinates":[139.75059400000009,35.695768000000044]},"properties":{"OBJECTID":89,"name":"セブンイレブン 北の丸スクエア店","lon":139.75059400000001,"lat":35.695768000000001}},{"type":"Feature","id":90,"geometry":{"type":"Point","coordinates":[139.76432900000009,35.687792000000059]},"properties":{"OBJECTID":90,"name":"セブンイレブン KDDI大手町ビル店","lon":139.764329,"lat":35.687792000000002}},{"type":"Feature","id":91,"geometry":{"type":"Point","coordinates":[139.75746100000003,35.690919000000065]},"properties":{"OBJECTID":91,"name":"セブンイレブン パレスサイドビル店","lon":139.75746100000001,"lat":35.690919000000001}},{"type":"Feature","id":92,"geometry":{"type":"Point","coordinates":[139.74786800000004,35.700123000000076]},"properties":{"OBJECTID":92,"name":"セブンイレブン 飯田橋4丁目店","lon":139.74786800000001,"lat":35.700122999999998}},{"type":"Feature","id":93,"geometry":{"type":"Point","coordinates":[139.7502750000001,35.701090000000079]},"properties":{"OBJECTID":93,"name":"セブンイレブン 飯田橋アイガーデンテラス店","lon":139.75027499999999,"lat":35.701090000000001}},{"type":"Feature","id":94,"geometry":{"type":"Point","coordinates":[139.76493600000003,35.678607000000056]},"properties":{"OBJECTID":94,"name":"セブンイレブン 丸の内東京ビル店","lon":139.76493600000001,"lat":35.678607}},{"type":"Feature","id":95,"geometry":{"type":"Point","coordinates":[139.754009,35.696046000000081]},"properties":{"OBJECTID":95,"name":"セブンイレブン 神田神保町3丁目店","lon":139.754009,"lat":35.696046000000003}},{"type":"Feature","id":96,"geometry":{"type":"Point","coordinates":[139.7606760000001,35.673898000000065]},"properties":{"OBJECTID":96,"name":"セブンイレブン 日比谷駅前店","lon":139.76067599999999,"lat":35.673898000000001}},{"type":"Feature","id":97,"geometry":{"type":"Point","coordinates":[139.73650300000008,35.686277000000075]},"properties":{"OBJECTID":97,"name":"セブンイレブン 麹町駅前店","lon":139.736503,"lat":35.686276999999997}},{"type":"Feature","id":98,"geometry":{"type":"Point","coordinates":[139.746308,35.672666000000049]},"properties":{"OBJECTID":98,"name":"セブンイレブン 中央合同庁舎8号館店","lon":139.746308,"lat":35.672666}},{"type":"Feature","id":99,"geometry":{"type":"Point","coordinates":[139.76271200000008,35.674248000000034]},"properties":{"OBJECTID":99,"name":"セブンイレブン 有楽町駅前店","lon":139.76271199999999,"lat":35.674247999999999}},{"type":"Feature","id":100,"geometry":{"type":"Point","coordinates":[139.736403,35.690809000000058]},"properties":{"OBJECTID":100,"name":"セブンイレブン 千代田五番町店","lon":139.736403,"lat":35.690809000000002}},{"type":"Feature","id":101,"geometry":{"type":"Point","coordinates":[139.77966600000002,35.695804000000066]},"properties":{"OBJECTID":101,"name":"セブンイレブン 東神田2丁目店","lon":139.77966599999999,"lat":35.695804000000003}},{"type":"Feature","id":102,"geometry":{"type":"Point","coordinates":[139.75050900000008,35.700406000000044]},"properties":{"OBJECTID":102,"name":"セブンイレブン KDDI本社20階店","lon":139.75050899999999,"lat":35.700406000000001}},{"type":"Feature","id":103,"geometry":{"type":"Point","coordinates":[139.76295200000004,35.685715000000073]},"properties":{"OBJECTID":103,"name":"セブンイレブン 大手町野村ビル店","lon":139.76295200000001,"lat":35.685715000000002}},{"type":"Feature","id":104,"geometry":{"type":"Point","coordinates":[139.75716900000009,35.698600000000056]},"properties":{"OBJECTID":104,"name":"セブンイレブン 神田神保町1丁目店","lon":139.757169,"lat":35.698599999999999}},{"type":"Feature","id":105,"geometry":{"type":"Point","coordinates":[139.7684230000001,35.69106400000004]},"properties":{"OBJECTID":105,"name":"セブンイレブン 神田駅西口通り店","lon":139.76842300000001,"lat":35.691063999999997}},{"type":"Feature","id":106,"geometry":{"type":"Point","coordinates":[139.76968100000011,35.696034000000054]},"properties":{"OBJECTID":106,"name":"セブンイレブン 神田須田町中央通り店","lon":139.76968099999999,"lat":35.696033999999997}},{"type":"Feature","id":107,"geometry":{"type":"Point","coordinates":[139.75458700000001,35.67585100000008]},"properties":{"OBJECTID":107,"name":"セブンイレブン 7FS中央合同庁舎6号館店","lon":139.75458699999999,"lat":35.675851000000002}},{"type":"Feature","id":108,"geometry":{"type":"Point","coordinates":[139.735904,35.690447000000063]},"properties":{"OBJECTID":108,"name":"セブンイレブン 市ヶ谷駅前店","lon":139.735904,"lat":35.690446999999999}},{"type":"Feature","id":109,"geometry":{"type":"Point","coordinates":[139.7777880000001,35.692074000000048]},"properties":{"OBJECTID":109,"name":"セブンイレブン 千代田岩本町1丁目店","lon":139.77778799999999,"lat":35.692073999999998}},{"type":"Feature","id":110,"geometry":{"type":"Point","coordinates":[139.74141100000008,35.692454000000055]},"properties":{"OBJECTID":110,"name":"セブンイレブン 九段南3丁目店","lon":139.741411,"lat":35.692453999999998}},{"type":"Feature","id":111,"geometry":{"type":"Point","coordinates":[139.74159200000008,35.68270700000005]},"properties":{"OBJECTID":111,"name":"セブンイレブン 千代田平河町1丁目店","lon":139.741592,"lat":35.682707000000001}},{"type":"Feature","id":112,"geometry":{"type":"Point","coordinates":[139.76217300000008,35.679108000000042]},"properties":{"OBJECTID":112,"name":"セブンイレブン 明治安田生命本社ビル店","lon":139.76217299999999,"lat":35.679107999999999}},{"type":"Feature","id":113,"geometry":{"type":"Point","coordinates":[139.759184,35.673729000000037]},"properties":{"OBJECTID":113,"name":"セブンイレブン 東京ミッドタウン日比谷ラウンジ店","lon":139.759184,"lat":35.673729000000002}},{"type":"Feature","id":114,"geometry":{"type":"Point","coordinates":[139.75953100000004,35.674097000000074]},"properties":{"OBJECTID":114,"name":"セブンイレブン 東京ミッドタウン日比谷店","lon":139.75953100000001,"lat":35.674097000000003}},{"type":"Feature","id":115,"geometry":{"type":"Point","coordinates":[139.76167500000008,35.694967000000076]},"properties":{"OBJECTID":115,"name":"セブンイレブン 神田小川町3丁目店","lon":139.761675,"lat":35.694966999999998}},{"type":"Feature","id":116,"geometry":{"type":"Point","coordinates":[139.75305100000003,35.673245000000065]},"properties":{"OBJECTID":116,"name":"セブンイレブン 中央合同庁舎5号館店","lon":139.753051,"lat":35.673245000000001}},{"type":"Feature","id":117,"geometry":{"type":"Point","coordinates":[139.76944100000003,35.696584000000087]},"properties":{"OBJECTID":117,"name":"セブンイレブン 神田万世橋南店","lon":139.769441,"lat":35.696584000000001}},{"type":"Feature","id":118,"geometry":{"type":"Point","coordinates":[139.73870600000009,35.67604300000005]},"properties":{"OBJECTID":118,"name":"セブンイレブン プルデンシャルタワー店","lon":139.73870600000001,"lat":35.676043}},{"type":"Feature","id":119,"geometry":{"type":"Point","coordinates":[139.76115300000004,35.678097000000037]},"properties":{"OBJECTID":119,"name":"セブンイレブン 丸の内二重橋ビル店","lon":139.76115300000001,"lat":35.678097000000001}},{"type":"Feature","id":120,"geometry":{"type":"Point","coordinates":[139.76474800000005,35.693254000000081]},"properties":{"OBJECTID":120,"name":"セブンイレブン 神田錦町1丁目店","lon":139.764748,"lat":35.693254000000003}},{"type":"Feature","id":121,"geometry":{"type":"Point","coordinates":[139.753289,35.70024200000006]},"properties":{"OBJECTID":121,"name":"セブンイレブン 神田三崎町2丁目店","lon":139.753289,"lat":35.700242000000003}},{"type":"Feature","id":122,"geometry":{"type":"Point","coordinates":[139.77527200000009,35.692680000000053]},"properties":{"OBJECTID":122,"name":"セブンイレブン 神田岩本町店","lon":139.775272,"lat":35.692680000000003}},{"type":"Feature","id":123,"geometry":{"type":"Point","coordinates":[139.76931300000001,35.702750000000037]},"properties":{"OBJECTID":123,"name":"セブンイレブン 外神田2丁目妻恋坂店","lon":139.76931300000001,"lat":35.702750000000002}},{"type":"Feature","id":124,"geometry":{"type":"Point","coordinates":[139.74520500000006,35.689482000000055]},"properties":{"OBJECTID":124,"name":"セブンイレブン 千代田三番町店","lon":139.745205,"lat":35.689481999999998}},{"type":"Feature","id":125,"geometry":{"type":"Point","coordinates":[139.74650200000008,35.697981000000084]},"properties":{"OBJECTID":125,"name":"セブンイレブン 千代田富士見1丁目店","lon":139.74650199999999,"lat":35.697980999999999}},{"type":"Feature","id":126,"geometry":{"type":"Point","coordinates":[139.73458400000004,35.690386000000046]},"properties":{"OBJECTID":126,"name":"セブンイレブン 市ヶ谷駅西店","lon":139.73458400000001,"lat":35.690385999999997}},{"type":"Feature","id":127,"geometry":{"type":"Point","coordinates":[139.76333099999999,35.691516000000036]},"properties":{"OBJECTID":127,"name":"セブンイレブン 神田錦町2丁目店","lon":139.76333099999999,"lat":35.691516}},{"type":"Feature","id":128,"geometry":{"type":"Point","coordinates":[139.75650300000007,35.692113000000063]},"properties":{"OBJECTID":128,"name":"セブンイレブン 住友商事竹橋ビル店","lon":139.75650300000001,"lat":35.692112999999999}},{"type":"Feature","id":129,"geometry":{"type":"Point","coordinates":[139.73867800000005,35.69208000000009]},"properties":{"OBJECTID":129,"name":"セブンイレブン 九段北4丁目店","lon":139.73867799999999,"lat":35.692079999999997}},{"type":"Feature","id":130,"geometry":{"type":"Point","coordinates":[139.73489300000006,35.682414000000051]},"properties":{"OBJECTID":130,"name":"セブンイレブン 紀尾井坂店","lon":139.734893,"lat":35.682414000000001}},{"type":"Feature","id":131,"geometry":{"type":"Point","coordinates":[139.74229000000003,35.676514000000054]},"properties":{"OBJECTID":131,"name":"セブンイレブン 7FS参議院議員会館店","lon":139.74229,"lat":35.676513999999997}},{"type":"Feature","id":132,"geometry":{"type":"Point","coordinates":[139.76546900000005,35.686999000000071]},"properties":{"OBJECTID":132,"name":"セブンイレブン 東京サンケイビル店","lon":139.765469,"lat":35.686999}},{"type":"Feature","id":133,"geometry":{"type":"Point","coordinates":[139.77401700000007,35.691722000000084]},"properties":{"OBJECTID":133,"name":"セブンイレブン 神田紺屋町店","lon":139.77401699999999,"lat":35.691721999999999}},{"type":"Feature","id":134,"geometry":{"type":"Point","coordinates":[139.77779500000008,35.69573900000006]},"properties":{"OBJECTID":134,"name":"ローソン 岩本町三丁目店","lon":139.777795,"lat":35.695739000000003}},{"type":"Feature","id":135,"geometry":{"type":"Point","coordinates":[139.75111300000003,35.697016000000076]},"properties":{"OBJECTID":135,"name":"ローソン 九段北目白通店","lon":139.751113,"lat":35.697015999999998}},{"type":"Feature","id":136,"geometry":{"type":"Point","coordinates":[139.76743700000009,35.686859000000084]},"properties":{"OBJECTID":136,"name":"セブンイレブン NTTCom大手町プレイス店","lon":139.767437,"lat":35.686858999999998}},{"type":"Feature","id":137,"geometry":{"type":"Point","coordinates":[139.76575500000001,35.684150000000045]},"properties":{"OBJECTID":137,"name":"セブンイレブン 丸の内センタービル店","lon":139.76575500000001,"lat":35.684150000000002}},{"type":"Feature","id":138,"geometry":{"type":"Point","coordinates":[139.7345150000001,35.683803000000069]},"properties":{"OBJECTID":138,"name":"ローソン 麹町五丁目店","lon":139.73451499999999,"lat":35.683802999999997}},{"type":"Feature","id":139,"geometry":{"type":"Point","coordinates":[139.76233300000001,35.687637000000052]},"properties":{"OBJECTID":139,"name":"セブンイレブン Otemachi One店","lon":139.76233300000001,"lat":35.687637000000002}},{"type":"Feature","id":140,"geometry":{"type":"Point","coordinates":[139.75834000000009,35.67240600000008]},"properties":{"OBJECTID":140,"name":"セブンイレブン AIM内幸町1丁目店","lon":139.75834,"lat":35.672406000000002}},{"type":"Feature","id":141,"geometry":{"type":"Point","coordinates":[139.77217700000006,35.698781000000054]},"properties":{"OBJECTID":141,"name":"セブンイレブン 秋葉原電気街口店","lon":139.772177,"lat":35.698780999999997}},{"type":"Feature","id":142,"geometry":{"type":"Point","coordinates":[139.75971000000004,35.690624000000071]},"properties":{"OBJECTID":142,"name":"セブンイレブン 丸紅ビル店","lon":139.75971000000001,"lat":35.690624}},{"type":"Feature","id":143,"geometry":{"type":"Point","coordinates":[139.77058700000009,35.684055000000058]},"properties":{"OBJECTID":143,"name":"セブンイレブン 常盤橋タワーB1F店","lon":139.77058700000001,"lat":35.684055000000001}},{"type":"Feature","id":144,"geometry":{"type":"Point","coordinates":[139.77228700000001,35.693304000000069]},"properties":{"OBJECTID":144,"name":"セブンイレブン 千代田鍛冶町2丁目店","lon":139.77228700000001,"lat":35.693303999999998}},{"type":"Feature","id":145,"geometry":{"type":"Point","coordinates":[139.77555200000006,35.694621000000041]},"properties":{"OBJECTID":145,"name":"セブンイレブン 千代田岩本町3丁目店","lon":139.775552,"lat":35.694620999999998}},{"type":"Feature","id":146,"geometry":{"type":"Point","coordinates":[139.73558500000001,35.686733000000061]},"properties":{"OBJECTID":146,"name":"セブンイレブン 二番町ファーストビル店","lon":139.73558499999999,"lat":35.686732999999997}},{"type":"Feature","id":147,"geometry":{"type":"Point","coordinates":[139.77521200000001,35.697767000000056]},"properties":{"OBJECTID":147,"name":"セブンイレブン 秋葉原駅前店","lon":139.77521200000001,"lat":35.697766999999999}},{"type":"Feature","id":148,"geometry":{"type":"Point","coordinates":[139.76448900000003,35.687138000000061]},"properties":{"OBJECTID":148,"name":"セブンイレブン 読売新聞東京本社ビル店","lon":139.764489,"lat":35.687137999999997}},{"type":"Feature","id":149,"geometry":{"type":"Point","coordinates":[139.76336300000003,35.697014000000081]},"properties":{"OBJECTID":149,"name":"ローソン 神田駿河台一丁目店","lon":139.763363,"lat":35.697014000000003}},{"type":"Feature","id":150,"geometry":{"type":"Point","coordinates":[139.7595950000001,35.674888000000067]},"properties":{"OBJECTID":150,"name":"ナチュラルローソン NL日比谷メトロピア店","lon":139.75959499999999,"lat":35.674888000000003}},{"type":"Feature","id":151,"geometry":{"type":"Point","coordinates":[139.74089500000002,35.678603000000066]},"properties":{"OBJECTID":151,"name":"ローソン 永田町一丁目店","lon":139.74089499999999,"lat":35.678603000000003}},{"type":"Feature","id":152,"geometry":{"type":"Point","coordinates":[139.76066100000003,35.678918000000067]},"properties":{"OBJECTID":152,"name":"ローソン 丸の内二重橋前店","lon":139.760661,"lat":35.678918000000003}},{"type":"Feature","id":153,"geometry":{"type":"Point","coordinates":[139.76268700000003,35.677379000000087]},"properties":{"OBJECTID":153,"name":"ナチュラルローソン NL新東京ビル店","lon":139.762687,"lat":35.677379000000002}},{"type":"Feature","id":154,"geometry":{"type":"Point","coordinates":[139.74111300000004,35.683519000000047]},"properties":{"OBJECTID":154,"name":"ローソン 麹町二丁目店","lon":139.74111300000001,"lat":35.683518999999997}},{"type":"Feature","id":155,"geometry":{"type":"Point","coordinates":[139.74325500000009,35.697582000000068]},"properties":{"OBJECTID":155,"name":"ローソン JPローソン東京逓信病院店","lon":139.743255,"lat":35.697581999999997}},{"type":"Feature","id":156,"geometry":{"type":"Point","coordinates":[139.75614400000006,35.696237000000053]},"properties":{"OBJECTID":156,"name":"ローソン 神田神保町二丁目店","lon":139.75614400000001,"lat":35.696237000000004}},{"type":"Feature","id":157,"geometry":{"type":"Point","coordinates":[139.75209100000006,35.696494000000087]},"properties":{"OBJECTID":157,"name":"ローソン 九段北一丁目店","lon":139.75209100000001,"lat":35.696494000000001}},{"type":"Feature","id":158,"geometry":{"type":"Point","coordinates":[139.77475300000003,35.700614000000087]},"properties":{"OBJECTID":158,"name":"ローソン 秋葉原北口店","lon":139.774753,"lat":35.700614000000002}},{"type":"Feature","id":159,"geometry":{"type":"Point","coordinates":[139.76121499999999,35.676715000000058]},"properties":{"OBJECTID":159,"name":"ローソン 丸の内国際ビル店","lon":139.76121499999999,"lat":35.676715000000002}},{"type":"Feature","id":160,"geometry":{"type":"Point","coordinates":[139.75694900000008,35.669379000000049]},"properties":{"OBJECTID":160,"name":"ローソン 内幸町一丁目店","lon":139.75694899999999,"lat":35.669378999999999}},{"type":"Feature","id":161,"geometry":{"type":"Point","coordinates":[139.76145400000007,35.674587000000088]},"properties":{"OBJECTID":161,"name":"ローソン 有楽町一丁目店","lon":139.76145399999999,"lat":35.674587000000002}},{"type":"Feature","id":162,"geometry":{"type":"Point","coordinates":[139.76253200000008,35.678570000000036]},"properties":{"OBJECTID":162,"name":"ローソン 丸の内パークビル店","lon":139.76253199999999,"lat":35.678570000000001}},{"type":"Feature","id":163,"geometry":{"type":"Point","coordinates":[139.76273000000003,35.686006000000077]},"properties":{"OBJECTID":163,"name":"ローソン 大手センタービル店","lon":139.76273,"lat":35.686005999999999}},{"type":"Feature","id":164,"geometry":{"type":"Point","coordinates":[139.76166499999999,35.700014000000067]},"properties":{"OBJECTID":164,"name":"ローソン H神田駿河台店","lon":139.76166499999999,"lat":35.700014000000003}},{"type":"Feature","id":165,"geometry":{"type":"Point","coordinates":[139.76217300000008,35.679108000000042]},"properties":{"OBJECTID":165,"name":"ナチュラルローソン NL丸の内マイプラザ店","lon":139.76217299999999,"lat":35.679107999999999}},{"type":"Feature","id":166,"geometry":{"type":"Point","coordinates":[139.74645800000008,35.672003000000075]},"properties":{"OBJECTID":166,"name":"ナチュラルローソン NL新霞が関ビル店","lon":139.74645799999999,"lat":35.672002999999997}},{"type":"Feature","id":167,"geometry":{"type":"Point","coordinates":[139.73571000000004,35.689092000000073]},"properties":{"OBJECTID":167,"name":"ナチュラルローソン 千代田四番町店","lon":139.73571000000001,"lat":35.689092000000002}},{"type":"Feature","id":168,"geometry":{"type":"Point","coordinates":[139.76704500000005,35.685006000000044]},"properties":{"OBJECTID":168,"name":"ローソン H新大手町ビル店","lon":139.767045,"lat":35.685006000000001}},{"type":"Feature","id":169,"geometry":{"type":"Point","coordinates":[139.74149199999999,35.679637000000071]},"properties":{"OBJECTID":169,"name":"ナチュラルローソン NL平河町森タワー店","lon":139.74149199999999,"lat":35.679637}},{"type":"Feature","id":170,"geometry":{"type":"Point","coordinates":[139.73989500000005,35.681004000000087]},"properties":{"OBJECTID":170,"name":"ローソンサテライト JA共済ビル店","lon":139.73989499999999,"lat":35.681004000000001}},{"type":"Feature","id":171,"geometry":{"type":"Point","coordinates":[139.76615800000002,35.688250000000039]},"properties":{"OBJECTID":171,"name":"ナチュラルローソン NL大手町フィナンシャルシティノース店","lon":139.76615799999999,"lat":35.688249999999996}},{"type":"Feature","id":172,"geometry":{"type":"Point","coordinates":[139.74532900000008,35.691216000000054]},"properties":{"OBJECTID":172,"name":"ナチュラルローソン NL千代田三番町店","lon":139.745329,"lat":35.691215999999997}},{"type":"Feature","id":173,"geometry":{"type":"Point","coordinates":[139.76327800000001,35.685349000000087]},"properties":{"OBJECTID":173,"name":"ナチュラルローソン 大手町メトロピア店","lon":139.76327800000001,"lat":35.685349000000002}},{"type":"Feature","id":174,"geometry":{"type":"Point","coordinates":[139.76327800000001,35.685349000000087]},"properties":{"OBJECTID":174,"name":"ナチュラルローソン 大手町西メトロピア店","lon":139.76327800000001,"lat":35.685349000000002}},{"type":"Feature","id":175,"geometry":{"type":"Point","coordinates":[139.7637840000001,35.680976000000044]},"properties":{"OBJECTID":175,"name":"ナチュラルローソン NL丸の内ビルディング店","lon":139.76378399999999,"lat":35.680976000000001}},{"type":"Feature","id":176,"geometry":{"type":"Point","coordinates":[139.76568700000007,35.687690000000089]},"properties":{"OBJECTID":176,"name":"ナチュラルローソン S大手町フィナンシャルシティサウス店","lon":139.76568700000001,"lat":35.687690000000003}},{"type":"Feature","id":177,"geometry":{"type":"Point","coordinates":[139.74664200000007,35.701604000000088]},"properties":{"OBJECTID":177,"name":"ローソン 飯田橋三丁目店","lon":139.74664200000001,"lat":35.701604000000003}},{"type":"Feature","id":178,"geometry":{"type":"Point","coordinates":[139.77024000000006,35.683130000000062]},"properties":{"OBJECTID":178,"name":"ローソン TEKKO avenue店","lon":139.77024,"lat":35.683129999999998}},{"type":"Feature","id":179,"geometry":{"type":"Point","coordinates":[139.77033100000006,35.700179000000048]},"properties":{"OBJECTID":179,"name":"ローソン 外神田三丁目店","lon":139.770331,"lat":35.700178999999999}},{"type":"Feature","id":180,"geometry":{"type":"Point","coordinates":[139.76209300000005,35.675560000000075]},"properties":{"OBJECTID":180,"name":"ローソン 新有楽町ビル店","lon":139.76209299999999,"lat":35.675559999999997}},{"type":"Feature","id":181,"geometry":{"type":"Point","coordinates":[139.76275200000009,35.697346000000039]},"properties":{"OBJECTID":181,"name":"ナチュラルローソン NL日本大学病院店","lon":139.76275200000001,"lat":35.697346000000003}},{"type":"Feature","id":182,"geometry":{"type":"Point","coordinates":[139.768822,35.70004700000004]},"properties":{"OBJECTID":182,"name":"ローソン 神田明神店","lon":139.768822,"lat":35.700046999999998}},{"type":"Feature","id":183,"geometry":{"type":"Point","coordinates":[139.77024000000006,35.683130000000062]},"properties":{"OBJECTID":183,"name":"ナチュラルローソン NLTEKKOavenue店","lon":139.77024,"lat":35.683129999999998}},{"type":"Feature","id":184,"geometry":{"type":"Point","coordinates":[139.77229700000009,35.691218000000049]},"properties":{"OBJECTID":184,"name":"ナチュラルローソン NL神田鍛冶町二丁目店","lon":139.77229700000001,"lat":35.691217999999999}},{"type":"Feature","id":185,"geometry":{"type":"Point","coordinates":[139.75711200000001,35.697333000000071]},"properties":{"OBJECTID":185,"name":"ローソン 神田神保町白山通り店","lon":139.75711200000001,"lat":35.697333}},{"type":"Feature","id":186,"geometry":{"type":"Point","coordinates":[139.76704500000005,35.688019000000054]},"properties":{"OBJECTID":186,"name":"ローソン 大手町二丁目店","lon":139.767045,"lat":35.688018999999997}},{"type":"Feature","id":187,"geometry":{"type":"Point","coordinates":[139.7647280000001,35.688704000000087]},"properties":{"OBJECTID":187,"name":"ローソン 大手町フィナンシャルシティグランキューブ店","lon":139.76472799999999,"lat":35.688704000000001}},{"type":"Feature","id":188,"geometry":{"type":"Point","coordinates":[139.74407500000007,35.698584000000039]},"properties":{"OBJECTID":188,"name":"ローソン 千代田富士見二丁目店","lon":139.74407500000001,"lat":35.698583999999997}},{"type":"Feature","id":189,"geometry":{"type":"Point","coordinates":[139.762473,35.693126000000063]},"properties":{"OBJECTID":189,"name":"ローソン 千代田神田錦町三丁目店","lon":139.762473,"lat":35.693125999999999}},{"type":"Feature","id":190,"geometry":{"type":"Point","coordinates":[139.76923600000009,35.690556000000072]},"properties":{"OBJECTID":190,"name":"ローソン 内神田三丁目店","lon":139.76923600000001,"lat":35.690556000000001}},{"type":"Feature","id":191,"geometry":{"type":"Point","coordinates":[139.76788800000008,35.690759000000071]},"properties":{"OBJECTID":191,"name":"ローソン 内神田二丁目店","lon":139.767888,"lat":35.690759}},{"type":"Feature","id":192,"geometry":{"type":"Point","coordinates":[139.7433880000001,35.698453000000086]},"properties":{"OBJECTID":192,"name":"ローソン 飯田橋サクラテラス店","lon":139.74338800000001,"lat":35.698453000000001}},{"type":"Feature","id":193,"geometry":{"type":"Point","coordinates":[139.76121499999999,35.676715000000058]},"properties":{"OBJECTID":193,"name":"ナチュラルローソン NLS帝劇ビル店","lon":139.76121499999999,"lat":35.676715000000002}},{"type":"Feature","id":194,"geometry":{"type":"Point","coordinates":[139.75442700000008,35.67033500000008]},"properties":{"OBJECTID":194,"name":"ナチュラルローソン 日比谷国際ビル店","lon":139.75442699999999,"lat":35.670335000000001}},{"type":"Feature","id":195,"geometry":{"type":"Point","coordinates":[139.74503600000003,35.702075000000036]},"properties":{"OBJECTID":195,"name":"ローソン メトロス飯田橋店","lon":139.745036,"lat":35.702075000000001}},{"type":"Feature","id":196,"geometry":{"type":"Point","coordinates":[139.77383400000008,35.700855000000047]},"properties":{"OBJECTID":196,"name":"ローソン 秋葉原スクエア店","lon":139.77383399999999,"lat":35.700854999999997}},{"type":"Feature","id":197,"geometry":{"type":"Point","coordinates":[139.77521200000001,35.697767000000056]},"properties":{"OBJECTID":197,"name":"ローソン メトロス秋葉原店","lon":139.77521200000001,"lat":35.697766999999999}},{"type":"Feature","id":198,"geometry":{"type":"Point","coordinates":[139.76066100000003,35.678918000000067]},"properties":{"OBJECTID":198,"name":"ローソン MC FOREST店","lon":139.760661,"lat":35.678918000000003}},{"type":"Feature","id":199,"geometry":{"type":"Point","coordinates":[139.75275000000011,35.675186000000053]},"properties":{"OBJECTID":199,"name":"ファミリーマート 東京高等裁判所内店","lon":139.75274999999999,"lat":35.675185999999997}},{"type":"Feature","id":200,"geometry":{"type":"Point","coordinates":[139.77223700000002,35.695911000000081]},"properties":{"OBJECTID":200,"name":"ローソン・スリーエフ 万世本店","lon":139.77223699999999,"lat":35.695911000000002}},{"type":"Feature","id":201,"geometry":{"type":"Point","coordinates":[139.76120600000002,35.691786000000036]},"properties":{"OBJECTID":201,"name":"ローソン 神田錦町店","lon":139.76120599999999,"lat":35.691786}},{"type":"Feature","id":202,"geometry":{"type":"Point","coordinates":[139.76709800000003,35.685941000000071]},"properties":{"OBJECTID":202,"name":"ローソン アーバンネット大手町店","lon":139.767098,"lat":35.685941}},{"type":"Feature","id":203,"geometry":{"type":"Point","coordinates":[139.77367700000002,35.69787000000008]},"properties":{"OBJECTID":203,"name":"ローソン アキバ・トリム店","lon":139.77367699999999,"lat":35.697870000000002}},{"type":"Feature","id":204,"geometry":{"type":"Point","coordinates":[139.76743700000009,35.686859000000084]},"properties":{"OBJECTID":204,"name":"ローソン JPローソン大手町プレイス地下2F店","lon":139.767437,"lat":35.686858999999998}},{"type":"Feature","id":205,"geometry":{"type":"Point","coordinates":[139.76743700000009,35.686859000000084]},"properties":{"OBJECTID":205,"name":"ローソン JPローソン大手町プレイス2F店","lon":139.767437,"lat":35.686858999999998}},{"type":"Feature","id":206,"geometry":{"type":"Point","coordinates":[139.77127700000005,35.703280000000063]},"properties":{"OBJECTID":206,"name":"ローソン 末広町駅前店","lon":139.771277,"lat":35.703279999999999}},{"type":"Feature","id":207,"geometry":{"type":"Point","coordinates":[139.76361100000008,35.684132000000034]},"properties":{"OBJECTID":207,"name":"ローソン 丸の内テラス店","lon":139.763611,"lat":35.684131999999998}},{"type":"Feature","id":208,"geometry":{"type":"Point","coordinates":[139.765128,35.698728000000074]},"properties":{"OBJECTID":208,"name":"ローソン お茶の水サンクレール店","lon":139.765128,"lat":35.698728000000003}},{"type":"Feature","id":209,"geometry":{"type":"Point","coordinates":[139.76296200000002,35.674429000000089]},"properties":{"OBJECTID":209,"name":"ファミリーマート 有楽町駅前店","lon":139.76296199999999,"lat":35.674429000000003}},{"type":"Feature","id":210,"geometry":{"type":"Point","coordinates":[139.7379360000001,35.679993000000081]},"properties":{"OBJECTID":210,"name":"ファミリーマート ファミマ東京ガーデンテラス店","lon":139.73793599999999,"lat":35.679993000000003}},{"type":"Feature","id":211,"geometry":{"type":"Point","coordinates":[139.75949800000001,35.69500000000005]},"properties":{"OBJECTID":211,"name":"ファミリーマート 神田神保町一丁目店","lon":139.75949800000001,"lat":35.695}},{"type":"Feature","id":212,"geometry":{"type":"Point","coordinates":[139.76180800000009,35.699346000000048]},"properties":{"OBJECTID":212,"name":"ファミリーマート 御茶ノ水駅前店","lon":139.761808,"lat":35.699345999999998}},{"type":"Feature","id":213,"geometry":{"type":"Point","coordinates":[139.73807900000008,35.681190000000072]},"properties":{"OBJECTID":213,"name":"ファミリーマート 紀尾井町店","lon":139.738079,"lat":35.681190000000001}},{"type":"Feature","id":214,"geometry":{"type":"Point","coordinates":[139.76399400000003,35.699055000000044]},"properties":{"OBJECTID":214,"name":"ファミリーマート 御茶ノ水駅南店","lon":139.763994,"lat":35.699055000000001}},{"type":"Feature","id":215,"geometry":{"type":"Point","coordinates":[139.75217200000009,35.701331000000039]},"properties":{"OBJECTID":215,"name":"ファミリーマート 水道橋西通り店","lon":139.752172,"lat":35.701331000000003}},{"type":"Feature","id":216,"geometry":{"type":"Point","coordinates":[139.76744400000007,35.697146000000089]},"properties":{"OBJECTID":216,"name":"ファミリーマート ホテルマイステイズ御茶ノ水店","lon":139.76744400000001,"lat":35.697145999999996}},{"type":"Feature","id":217,"geometry":{"type":"Point","coordinates":[139.76812300000006,35.692074000000048]},"properties":{"OBJECTID":217,"name":"ファミリーマート 内神田二丁目店","lon":139.768123,"lat":35.692073999999998}},{"type":"Feature","id":218,"geometry":{"type":"Point","coordinates":[139.76700500000004,35.694854000000078]},"properties":{"OBJECTID":218,"name":"ファミリーマート 薬ヒグチ淡路町店","lon":139.76700500000001,"lat":35.694853999999999}},{"type":"Feature","id":219,"geometry":{"type":"Point","coordinates":[139.77185700000007,35.692262000000085]},"properties":{"OBJECTID":219,"name":"ファミリーマート 神田駅東口店","lon":139.77185700000001,"lat":35.692261999999999}},{"type":"Feature","id":220,"geometry":{"type":"Point","coordinates":[139.75394300000005,35.674702000000082]},"properties":{"OBJECTID":220,"name":"ファミリーマート 東京家庭裁判所内店","lon":139.75394299999999,"lat":35.674702000000003}},{"type":"Feature","id":221,"geometry":{"type":"Point","coordinates":[139.76267200000007,35.698155000000042]},"properties":{"OBJECTID":221,"name":"ファミリーマート お茶の水明大通り店","lon":139.76267200000001,"lat":35.698155}},{"type":"Feature","id":222,"geometry":{"type":"Point","coordinates":[139.75631200000009,35.695172000000071]},"properties":{"OBJECTID":222,"name":"ファミリーマート 神田神保町二丁目店","lon":139.75631200000001,"lat":35.695171999999999}},{"type":"Feature","id":223,"geometry":{"type":"Point","coordinates":[139.76052100000004,35.673179000000061]},"properties":{"OBJECTID":223,"name":"ファミリーマート 日比谷シャンテ前店","lon":139.76052100000001,"lat":35.673178999999998}},{"type":"Feature","id":224,"geometry":{"type":"Point","coordinates":[139.76737200000002,35.678963000000067]},"properties":{"OBJECTID":224,"name":"ファミリーマート ファミマサウスタワー店","lon":139.76737199999999,"lat":35.678963000000003}},{"type":"Feature","id":225,"geometry":{"type":"Point","coordinates":[139.761931,35.686118000000079]},"properties":{"OBJECTID":225,"name":"ファミリーマート ファミマ大手門タワー店","lon":139.761931,"lat":35.686118}},{"type":"Feature","id":226,"geometry":{"type":"Point","coordinates":[139.77155800000003,35.704210000000046]},"properties":{"OBJECTID":226,"name":"ファミリーマート ファーマライズ薬局末広町店","lon":139.771558,"lat":35.704210000000003}},{"type":"Feature","id":227,"geometry":{"type":"Point","coordinates":[139.754547,35.700330000000065]},"properties":{"OBJECTID":227,"name":"ファミリーマート 三崎神社通り店","lon":139.754547,"lat":35.700330000000001}},{"type":"Feature","id":228,"geometry":{"type":"Point","coordinates":[139.76388000000009,35.695847000000072]},"properties":{"OBJECTID":228,"name":"ファミリーマート 神田駿河台三丁目店","lon":139.76388,"lat":35.695847000000001}},{"type":"Feature","id":229,"geometry":{"type":"Point","coordinates":[139.76453600000002,35.685321000000044]},"properties":{"OBJECTID":229,"name":"ファミリーマート OOTEMORI店","lon":139.76453599999999,"lat":35.685321000000002}},{"type":"Feature","id":230,"geometry":{"type":"Point","coordinates":[139.7486550000001,35.700394000000074]},"properties":{"OBJECTID":230,"name":"ファミリーマート 飯田橋三丁目店","lon":139.74865500000001,"lat":35.700394000000003}},{"type":"Feature","id":231,"geometry":{"type":"Point","coordinates":[139.74965600000007,35.699031000000048]},"properties":{"OBJECTID":231,"name":"ファミリーマート 飯田橋二丁目店","lon":139.74965599999999,"lat":35.699030999999998}},{"type":"Feature","id":232,"geometry":{"type":"Point","coordinates":[139.759458,35.695378000000062]},"properties":{"OBJECTID":232,"name":"ファミリーマート FUNDES神保町店","lon":139.759458,"lat":35.695377999999998}},{"type":"Feature","id":233,"geometry":{"type":"Point","coordinates":[139.74500500000011,35.70102600000007]},"properties":{"OBJECTID":233,"name":"ファミリーマート 飯田橋プラーノ店","lon":139.74500499999999,"lat":35.701025999999999}},{"type":"Feature","id":234,"geometry":{"type":"Point","coordinates":[139.76002200000005,35.693403000000046]},"properties":{"OBJECTID":234,"name":"ファミリーマート テラススクエア店","lon":139.76002199999999,"lat":35.693403000000004}},{"type":"Feature","id":235,"geometry":{"type":"Point","coordinates":[139.7798160000001,35.69745800000004]},"properties":{"OBJECTID":235,"name":"ファミリーマート 神田佐久間町店","lon":139.77981600000001,"lat":35.697457999999997}},{"type":"Feature","id":236,"geometry":{"type":"Point","coordinates":[139.75142200000005,35.696073000000069]},"properties":{"OBJECTID":236,"name":"ファミリーマート 九段北一丁目店","lon":139.75142199999999,"lat":35.696072999999998}},{"type":"Feature","id":237,"geometry":{"type":"Point","coordinates":[139.78082700000004,35.695589000000041]},"properties":{"OBJECTID":237,"name":"ファミリーマート 東神田二丁目店","lon":139.78082699999999,"lat":35.695588999999998}},{"type":"Feature","id":238,"geometry":{"type":"Point","coordinates":[139.76744400000007,35.697146000000089]},"properties":{"OBJECTID":238,"name":"ファミリーマート ワテラスタワー前店","lon":139.76744400000001,"lat":35.697145999999996}},{"type":"Feature","id":239,"geometry":{"type":"Point","coordinates":[139.75758000000008,35.690936000000079]},"properties":{"OBJECTID":239,"name":"ファミリーマート パレスサイドビル店","lon":139.75757999999999,"lat":35.690936000000001}},{"type":"Feature","id":240,"geometry":{"type":"Point","coordinates":[139.76976100000002,35.68322500000005]},"properties":{"OBJECTID":240,"name":"ファミリーマート 丸の内トラストタワー店","lon":139.76976099999999,"lat":35.683225}},{"type":"Feature","id":241,"geometry":{"type":"Point","coordinates":[139.77261500000009,35.700550000000078]},"properties":{"OBJECTID":241,"name":"ファミリーマート ファミマ!!秋葉原UDX店","lon":139.772615,"lat":35.70055}},{"type":"Feature","id":242,"geometry":{"type":"Point","coordinates":[139.75316900000007,35.701624000000038]},"properties":{"OBJECTID":242,"name":"ファミリーマート 水道橋駅西口店","lon":139.75316900000001,"lat":35.701624000000002}},{"type":"Feature","id":243,"geometry":{"type":"Point","coordinates":[139.77021000000002,35.69958100000008]},"properties":{"OBJECTID":243,"name":"ファミリーマート 外神田一丁目店","lon":139.77020999999999,"lat":35.699581000000002}},{"type":"Feature","id":244,"geometry":{"type":"Point","coordinates":[139.76970100000005,35.692545000000052]},"properties":{"OBJECTID":244,"name":"ファミリーマート 神田駅北店","lon":139.769701,"lat":35.692545000000003}},{"type":"Feature","id":245,"geometry":{"type":"Point","coordinates":[139.77633100000003,35.698610000000087]},"properties":{"OBJECTID":245,"name":"ファミリーマート 秋葉原駅前店","lon":139.776331,"lat":35.698610000000002}},{"type":"Feature","id":246,"geometry":{"type":"Point","coordinates":[139.74527399999999,35.699272000000065]},"properties":{"OBJECTID":246,"name":"ファミリーマート 千代田富士見二丁目店","lon":139.74527399999999,"lat":35.699272000000001}},{"type":"Feature","id":247,"geometry":{"type":"Point","coordinates":[139.766885,35.678055000000086]},"properties":{"OBJECTID":247,"name":"ファミリーマート PCP丸の内店","lon":139.766885,"lat":35.678055000000001}},{"type":"Feature","id":248,"geometry":{"type":"Point","coordinates":[139.73722100000009,35.691657000000077]},"properties":{"OBJECTID":248,"name":"ファミリーマート 市ヶ谷店","lon":139.73722100000001,"lat":35.691656999999999}},{"type":"Feature","id":249,"geometry":{"type":"Point","coordinates":[139.756169,35.699083000000087]},"properties":{"OBJECTID":249,"name":"ファミリーマート 西神田二丁目店","lon":139.756169,"lat":35.699083000000002}},{"type":"Feature","id":250,"geometry":{"type":"Point","coordinates":[139.73536100000001,35.687774000000047]},"properties":{"OBJECTID":250,"name":"ファミリーマート 六番町日テレ前店","lon":139.73536100000001,"lat":35.687773999999997}},{"type":"Feature","id":251,"geometry":{"type":"Point","coordinates":[139.77689000000009,35.70034000000004]},"properties":{"OBJECTID":251,"name":"ファミリーマート 神田和泉町店","lon":139.77689000000001,"lat":35.700339999999997}},{"type":"Feature","id":252,"geometry":{"type":"Point","coordinates":[139.76672600000006,35.698507000000063]},"properties":{"OBJECTID":252,"name":"ファミリーマート ファミマ御茶ノ水ソラシティ店","lon":139.76672600000001,"lat":35.698506999999999}},{"type":"Feature","id":253,"geometry":{"type":"Point","coordinates":[139.76970100000005,35.69383600000009]},"properties":{"OBJECTID":253,"name":"ファミリーマート 神田多町店","lon":139.769701,"lat":35.693835999999997}},{"type":"Feature","id":254,"geometry":{"type":"Point","coordinates":[139.77118200000007,35.701264000000037]},"properties":{"OBJECTID":254,"name":"ファミリーマート 外神田三丁目東店","lon":139.77118200000001,"lat":35.701264000000002}},{"type":"Feature","id":255,"geometry":{"type":"Point","coordinates":[139.74605600000007,35.701431000000071]},"properties":{"OBJECTID":255,"name":"ファミリーマート 飯田橋駅前店","lon":139.74605600000001,"lat":35.701430999999999}},{"type":"Feature","id":256,"geometry":{"type":"Point","coordinates":[139.76982100000009,35.690979000000084]},"properties":{"OBJECTID":256,"name":"ファミリーマート 神田西口店","lon":139.76982100000001,"lat":35.690978999999999}},{"type":"Feature","id":257,"geometry":{"type":"Point","coordinates":[139.74183100000005,35.683305000000075]},"properties":{"OBJECTID":257,"name":"ファミリーマート 半蔵門駅南店","lon":139.74183099999999,"lat":35.683304999999997}},{"type":"Feature","id":258,"geometry":{"type":"Point","coordinates":[139.77109800000005,35.690451000000053]},"properties":{"OBJECTID":258,"name":"ファミリーマート 神田鍛冶町店","lon":139.77109799999999,"lat":35.690451000000003}},{"type":"Feature","id":259,"geometry":{"type":"Point","coordinates":[139.76764400000002,35.692384000000061]},"properties":{"OBJECTID":259,"name":"ファミリーマート 神田司町店","lon":139.76764399999999,"lat":35.692383999999997}},{"type":"Feature","id":260,"geometry":{"type":"Point","coordinates":[139.76582600000006,35.695235000000082]},"properties":{"OBJECTID":260,"name":"ファミリーマート 都営小川町店","lon":139.765826,"lat":35.695234999999997}},{"type":"Feature","id":261,"geometry":{"type":"Point","coordinates":[139.77195700000004,35.69791500000008]},"properties":{"OBJECTID":261,"name":"ファミリーマート 秋葉原ラジオ会館店","lon":139.77195699999999,"lat":35.697915000000002}},{"type":"Feature","id":262,"geometry":{"type":"Point","coordinates":[139.76628800000003,35.689906000000065]},"properties":{"OBJECTID":262,"name":"ファミリーマート 内神田鎌倉橋店","lon":139.766288,"lat":35.689906000000001}},{"type":"Feature","id":263,"geometry":{"type":"Point","coordinates":[139.73821800000007,35.676446000000055]},"properties":{"OBJECTID":263,"name":"ファミリーマート 永田町店","lon":139.73821799999999,"lat":35.676445999999999}},{"type":"Feature","id":264,"geometry":{"type":"Point","coordinates":[139.76468900000009,35.685891000000083]},"properties":{"OBJECTID":264,"name":"ファミリーマート ファーストスクエア店","lon":139.764689,"lat":35.685890999999998}},{"type":"Feature","id":265,"geometry":{"type":"Point","coordinates":[139.76141700000005,35.698780000000056]},"properties":{"OBJECTID":265,"name":"ファミリーマート 御茶ノ水とちの木通り店","lon":139.76141699999999,"lat":35.698779999999999}},{"type":"Feature","id":266,"geometry":{"type":"Point","coordinates":[139.76221500000008,35.69838400000009]},"properties":{"OBJECTID":266,"name":"ファミリーマート 明大マート駿河台店","lon":139.762215,"lat":35.698383999999997}},{"type":"Feature","id":267,"geometry":{"type":"Point","coordinates":[139.76578700000005,35.691586000000086]},"properties":{"OBJECTID":267,"name":"ファミリーマート 内神田一丁目店","lon":139.76578699999999,"lat":35.691586000000001}},{"type":"Feature","id":268,"geometry":{"type":"Point","coordinates":[139.76363000000003,35.694743000000074]},"properties":{"OBJECTID":268,"name":"ファミリーマート 千代田小川町店","lon":139.76363000000001,"lat":35.694743000000003}},{"type":"Feature","id":269,"geometry":{"type":"Point","coordinates":[139.7406830000001,35.673183000000051]},"properties":{"OBJECTID":269,"name":"ファミリーマート 山王パークタワー店","lon":139.74068299999999,"lat":35.673183000000002}},{"type":"Feature","id":270,"geometry":{"type":"Point","coordinates":[139.76480900000001,35.686405000000036]},"properties":{"OBJECTID":270,"name":"ファミリーマート 大手町ビル店","lon":139.76480900000001,"lat":35.686405000000001}},{"type":"Feature","id":271,"geometry":{"type":"Point","coordinates":[139.74171200000001,35.684907000000067]},"properties":{"OBJECTID":271,"name":"ファミリーマート 麹町一丁目店","lon":139.74171200000001,"lat":35.684907000000003}},{"type":"Feature","id":272,"geometry":{"type":"Point","coordinates":[139.74257900000009,35.686106000000052]},"properties":{"OBJECTID":272,"name":"ファミリーマート 半蔵門駅前店","lon":139.74257900000001,"lat":35.686106000000002}},{"type":"Feature","id":273,"geometry":{"type":"Point","coordinates":[139.74722900000006,35.694327000000044]},"properties":{"OBJECTID":273,"name":"ファミリーマート 九段下駅西店","lon":139.747229,"lat":35.694327000000001}},{"type":"Feature","id":274,"geometry":{"type":"Point","coordinates":[139.77421400000003,35.697905000000048]},"properties":{"OBJECTID":274,"name":"ファミリーマート 秋葉原駅中央口前店","lon":139.774214,"lat":35.697904999999999}},{"type":"Feature","id":275,"geometry":{"type":"Point","coordinates":[139.77191600000003,35.69615900000008]},"properties":{"OBJECTID":275,"name":"ファミリーマート 神田須田町二丁目店","lon":139.771916,"lat":35.696159000000002}},{"type":"Feature","id":276,"geometry":{"type":"Point","coordinates":[139.74797599999999,35.671849000000066]},"properties":{"OBJECTID":276,"name":"ファミリーマート 南山堂中央合同庁舎7号館店","lon":139.74797599999999,"lat":35.671849000000002}},{"type":"Feature","id":277,"geometry":{"type":"Point","coordinates":[139.770939,35.692754000000036]},"properties":{"OBJECTID":277,"name":"ファミリーマート 神田駅北口店","lon":139.770939,"lat":35.692754000000001}},{"type":"Feature","id":278,"geometry":{"type":"Point","coordinates":[139.745045,35.69364900000005]},"properties":{"OBJECTID":278,"name":"ファミリーマート 九段南二丁目店","lon":139.745045,"lat":35.693649000000001}},{"type":"Feature","id":279,"geometry":{"type":"Point","coordinates":[139.75658300000009,35.696807000000035]},"properties":{"OBJECTID":279,"name":"ファミリーマート 神保町さくら通り店","lon":139.75658300000001,"lat":35.696807}},{"type":"Feature","id":280,"geometry":{"type":"Point","coordinates":[139.76409000000001,35.676432000000034]},"properties":{"OBJECTID":280,"name":"ファミリーマート 東京国際フォーラム店","lon":139.76409000000001,"lat":35.676431999999998}},{"type":"Feature","id":281,"geometry":{"type":"Point","coordinates":[139.75489100000004,35.696286000000043]},"properties":{"OBJECTID":281,"name":"ファミリーマート 専大通り店","lon":139.75489099999999,"lat":35.696286000000001}},{"type":"Feature","id":282,"geometry":{"type":"Point","coordinates":[139.76861100000008,35.683718000000056]},"properties":{"OBJECTID":282,"name":"ファミリーマート ファミマサピアタワー/S店","lon":139.76861099999999,"lat":35.683717999999999}},{"type":"Feature","id":283,"geometry":{"type":"Point","coordinates":[139.74183600000003,35.671782000000064]},"properties":{"OBJECTID":283,"name":"ファミリーマート 参議院/S店","lon":139.74183600000001,"lat":35.671782}},{"type":"Feature","id":284,"geometry":{"type":"Point","coordinates":[139.76640600000007,35.683459000000084]},"properties":{"OBJECTID":284,"name":"ファミリーマート FAMIMAfactory店","lon":139.76640599999999,"lat":35.683458999999999}},{"type":"Feature","id":285,"geometry":{"type":"Point","coordinates":[139.75124600000004,35.701782000000037]},"properties":{"OBJECTID":285,"name":"ファミリーマート 三崎町三丁目店","lon":139.75124600000001,"lat":35.701782000000001}},{"type":"Feature","id":286,"geometry":{"type":"Point","coordinates":[139.75490600000001,35.701370000000054]},"properties":{"OBJECTID":286,"name":"ファミリーマート 水道橋駅東口店","lon":139.75490600000001,"lat":35.701369999999997}},{"type":"Feature","id":287,"geometry":{"type":"Point","coordinates":[139.7751330000001,35.691675000000089]},"properties":{"OBJECTID":287,"name":"ファミリーマート 神田岩本町一丁目店","lon":139.77513300000001,"lat":35.691674999999996}},{"type":"Feature","id":288,"geometry":{"type":"Point","coordinates":[139.73807900000008,35.682840000000056]},"properties":{"OBJECTID":288,"name":"ファミリーマート 紀尾井町三番地店","lon":139.738079,"lat":35.682839999999999}},{"type":"Feature","id":289,"geometry":{"type":"Point","coordinates":[139.73723400000006,35.684827000000041]},"properties":{"OBJECTID":289,"name":"ファミリーマート 麹町駅前店","lon":139.737234,"lat":35.684826999999999}},{"type":"Feature","id":290,"geometry":{"type":"Point","coordinates":[139.77190700000006,35.70195700000005]},"properties":{"OBJECTID":290,"name":"ファミリーマート 外神田四丁目店","lon":139.771907,"lat":35.701957}},{"type":"Feature","id":291,"geometry":{"type":"Point","coordinates":[139.75138800000002,35.675644000000034]},"properties":{"OBJECTID":291,"name":"ファミリーマート 霞ヶ関合同庁舎店","lon":139.75138799999999,"lat":35.675643999999998}},{"type":"Feature","id":292,"geometry":{"type":"Point","coordinates":[139.76642600000002,35.696971000000076]},"properties":{"OBJECTID":292,"name":"ファミリーマート 神田淡路町二丁目店","lon":139.766426,"lat":35.696970999999998}},{"type":"Feature","id":293,"geometry":{"type":"Point","coordinates":[139.77515200000005,35.699052000000052]},"properties":{"OBJECTID":293,"name":"ファミリーマート 秋葉原昭和通り店","lon":139.77515199999999,"lat":35.699052000000002}},{"type":"Feature","id":294,"geometry":{"type":"Point","coordinates":[139.73893700000008,35.679186000000072]},"properties":{"OBJECTID":294,"name":"ファミリーマート 都道府県会館店","lon":139.73893699999999,"lat":35.679186000000001}},{"type":"Feature","id":295,"geometry":{"type":"Point","coordinates":[139.76640600000007,35.683459000000084]},"properties":{"OBJECTID":295,"name":"ファミリーマート 丸の内オアゾ店","lon":139.76640599999999,"lat":35.683458999999999}},{"type":"Feature","id":296,"geometry":{"type":"Point","coordinates":[139.75538500000005,35.670575000000042]},"properties":{"OBJECTID":296,"name":"ファミリーマート 内幸町富国生命ビル店","lon":139.75538499999999,"lat":35.670574999999999}},{"type":"Feature","id":297,"geometry":{"type":"Point","coordinates":[139.74105300000008,35.686812000000089]},"properties":{"OBJECTID":297,"name":"ファミリーマート 一番町店","lon":139.74105299999999,"lat":35.686812000000003}},{"type":"Feature","id":298,"geometry":{"type":"Point","coordinates":[139.77097900000001,35.694241000000034]},"properties":{"OBJECTID":298,"name":"ファミリーマート 神田鍛冶町三丁目店","lon":139.77097900000001,"lat":35.694240999999998}},{"type":"Feature","id":299,"geometry":{"type":"Point","coordinates":[139.76770400000009,35.697489000000076]},"properties":{"OBJECTID":299,"name":"セブンイレブン ワテラス店","lon":139.76770400000001,"lat":35.697488999999997}},{"type":"Feature","id":300,"geometry":{"type":"Point","coordinates":[139.77667000000008,35.695143000000087]},"properties":{"OBJECTID":300,"name":"デイリーヤマザキ 岩本町3丁目店","lon":139.77667,"lat":35.695143000000002}},{"type":"Feature","id":301,"geometry":{"type":"Point","coordinates":[139.75350200000003,35.702048000000048]},"properties":{"OBJECTID":301,"name":"NewDays(ニューデイズ) 水道橋東口店","lon":139.753502,"lat":35.702047999999998}},{"type":"Feature","id":302,"geometry":{"type":"Point","coordinates":[139.76712500000008,35.681236000000069]},"properties":{"OBJECTID":302,"name":"NEWDAYS MINI(ニューデイズミニ) 京葉1A店","lon":139.76712499999999,"lat":35.681235999999998}},{"type":"Feature","id":303,"geometry":{"type":"Point","coordinates":[139.7480230000001,35.673109000000068]},"properties":{"OBJECTID":303,"name":"ファミリーマート 財務省本庁舎店","lon":139.74802299999999,"lat":35.673108999999997}},{"type":"Feature","id":304,"geometry":{"type":"Point","coordinates":[139.74502300000006,35.70208400000007]},"properties":{"OBJECTID":304,"name":"NewDays(ニューデイズ) 飯田橋東口店","lon":139.745023,"lat":35.702083999999999}},{"type":"Feature","id":305,"geometry":{"type":"Point","coordinates":[139.75330900000006,35.671321000000034]},"properties":{"OBJECTID":305,"name":"ファミリーマート 日比谷中日ビル店","lon":139.753309,"lat":35.671320999999999}},{"type":"Feature","id":306,"geometry":{"type":"Point","coordinates":[139.73881800000004,35.684337000000085]},"properties":{"OBJECTID":306,"name":"ファミリーマート 麹町三丁目店","lon":139.73881800000001,"lat":35.684336999999999}},{"type":"Feature","id":307,"geometry":{"type":"Point","coordinates":[139.74044700000002,35.683451000000048]},"properties":{"OBJECTID":307,"name":"ファミリーマート 麹町二丁目店","lon":139.74044699999999,"lat":35.683450999999998}},{"type":"Feature","id":308,"geometry":{"type":"Point","coordinates":[139.77595300000007,35.696361000000081]},"properties":{"OBJECTID":308,"name":"デイリーヤマザキ 岩本町和泉橋店","lon":139.77595299999999,"lat":35.696361000000003}},{"type":"Feature","id":309,"geometry":{"type":"Point","coordinates":[139.76845000000003,35.695487000000071]},"properties":{"OBJECTID":309,"name":"ファミリーマート 神田須田町一丁目店","lon":139.76845,"lat":35.695487}},{"type":"Feature","id":310,"geometry":{"type":"Point","coordinates":[139.77367700000002,35.69787000000008]},"properties":{"OBJECTID":310,"name":"ファミリーマート TX秋葉原駅店","lon":139.77367699999999,"lat":35.697870000000002}},{"type":"Feature","id":311,"geometry":{"type":"Point","coordinates":[139.77894700000002,35.693148000000065]},"properties":{"OBJECTID":311,"name":"デイリーヤマザキ 神田岩本町店","lon":139.77894699999999,"lat":35.693148000000001}},{"type":"Feature","id":312,"geometry":{"type":"Point","coordinates":[139.76209300000005,35.676421000000062]},"properties":{"OBJECTID":312,"name":"ファミリーマート 丸の内新国際ビル店","lon":139.76209299999999,"lat":35.676420999999998}},{"type":"Feature","id":313,"geometry":{"type":"Point","coordinates":[139.75206300000002,35.693798000000072]},"properties":{"OBJECTID":313,"name":"ニューヤマザキデイリーストア 九段坂病院店","lon":139.75206299999999,"lat":35.693798000000001}},{"type":"Feature","id":314,"geometry":{"type":"Point","coordinates":[139.76712500000008,35.681236000000069]},"properties":{"OBJECTID":314,"name":"NEWDAYS MINI(ニューデイズ ミニ) 東ホ3A","lon":139.76712499999999,"lat":35.681235999999998}},{"type":"Feature","id":315,"geometry":{"type":"Point","coordinates":[139.76712500000008,35.681236000000069]},"properties":{"OBJECTID":315,"name":"NEWDAYS MINI(ニューデイズミニ) 丸地下2A店","lon":139.76712499999999,"lat":35.681235999999998}},{"type":"Feature","id":316,"geometry":{"type":"Point","coordinates":[139.76714100000004,35.67993800000005]},"properties":{"OBJECTID":316,"name":"NewDays エキュート京葉ストリート","lon":139.76714100000001,"lat":35.679938}},{"type":"Feature","id":317,"geometry":{"type":"Point","coordinates":[139.76712500000008,35.681236000000069]},"properties":{"OBJECTID":317,"name":"NEWDAYS MINI(ニューデイズミニ) 丸地下7号店","lon":139.76712499999999,"lat":35.681235999999998}},{"type":"Feature","id":318,"geometry":{"type":"Point","coordinates":[139.77307200000007,35.698383000000035]},"properties":{"OBJECTID":318,"name":"NEWDAYS MINI(ニューデイズミニ) 秋葉原1号店","lon":139.77307200000001,"lat":35.698383}},{"type":"Feature","id":319,"geometry":{"type":"Point","coordinates":[139.76696500000003,35.685907000000043]},"properties":{"OBJECTID":319,"name":"生活彩家 アーバンネット大手町店","lon":139.766965,"lat":35.685907}},{"type":"Feature","id":320,"geometry":{"type":"Point","coordinates":[139.77307200000007,35.698383000000035]},"properties":{"OBJECTID":320,"name":"NEWDAYS MINI(ニューデイズミニ) 秋葉原3号店","lon":139.77307200000001,"lat":35.698383}},{"type":"Feature","id":321,"geometry":{"type":"Point","coordinates":[139.76691200000005,35.681864000000076]},"properties":{"OBJECTID":321,"name":"NewDays(ニューデイズ) グランスタ丸の内北口店","lon":139.76691199999999,"lat":35.681863999999997}},{"type":"Feature","id":322,"geometry":{"type":"Point","coordinates":[139.76691200000005,35.681864000000076]},"properties":{"OBJECTID":322,"name":"NewDays(ニューデイズ)八重洲北口店","lon":139.76691199999999,"lat":35.681863999999997}},{"type":"Feature","id":323,"geometry":{"type":"Point","coordinates":[139.76691200000005,35.681864000000076]},"properties":{"OBJECTID":323,"name":"NewDays(ニューデイズ) グランスタ丸の内南口店","lon":139.76691199999999,"lat":35.681863999999997}},{"type":"Feature","id":324,"geometry":{"type":"Point","coordinates":[139.76691200000005,35.681864000000076]},"properties":{"OBJECTID":324,"name":"NewDays(ニューデイズ) グランスタ東京北通路店","lon":139.76691199999999,"lat":35.681863999999997}},{"type":"Feature","id":325,"geometry":{"type":"Point","coordinates":[139.76691200000005,35.681864000000076]},"properties":{"OBJECTID":325,"name":"NewDays(ニューデイズ) グランスタ東京中央通路店","lon":139.76691199999999,"lat":35.681863999999997}},{"type":"Feature","id":326,"geometry":{"type":"Point","coordinates":[139.74433900000008,35.674572000000069]},"properties":{"OBJECTID":326,"name":"Mマート衆議院店","lon":139.744339,"lat":35.674571999999998}},{"type":"Feature","id":327,"geometry":{"type":"Point","coordinates":[139.76934900000003,35.698970000000088]},"properties":{"OBJECTID":327,"name":"リーベンハウス 秋葉原ファーストビル店","lon":139.76934900000001,"lat":35.698970000000003}},{"type":"Feature","id":328,"geometry":{"type":"Point","coordinates":[139.77367700000002,35.69787000000008]},"properties":{"OBJECTID":328,"name":"生活彩家 秋葉原駅前店","lon":139.77367699999999,"lat":35.697870000000002}},{"type":"Feature","id":329,"geometry":{"type":"Point","coordinates":[139.75443000000007,35.693721000000039]},"properties":{"OBJECTID":329,"name":"(株)オーキッド","lon":139.75443000000001,"lat":35.693720999999996}},{"type":"Feature","id":330,"geometry":{"type":"Point","coordinates":[139.74502300000006,35.702074000000039]},"properties":{"OBJECTID":330,"name":"ニューデイズ飯田橋1号","lon":139.745023,"lat":35.702074000000003}},{"type":"Feature","id":331,"geometry":{"type":"Point","coordinates":[139.76120600000002,35.691786000000036]},"properties":{"OBJECTID":331,"name":"生活彩家 神田錦町店","lon":139.76120599999999,"lat":35.691786}},{"type":"Feature","id":332,"geometry":{"type":"Point","coordinates":[139.75479700000005,35.701894000000038]},"properties":{"OBJECTID":332,"name":"ニューデイズ水道橋西口","lon":139.754797,"lat":35.701894000000003}},{"type":"Feature","id":333,"geometry":{"type":"Point","coordinates":[139.77086500000007,35.691666000000055]},"properties":{"OBJECTID":333,"name":"ニューデイズ神田南口","lon":139.77086499999999,"lat":35.691665999999998}},{"type":"Feature","id":334,"geometry":{"type":"Point","coordinates":[139.77086500000007,35.691666000000055]},"properties":{"OBJECTID":334,"name":"ニューデイズ神田北口","lon":139.77086499999999,"lat":35.691665999999998}},{"type":"Feature","id":335,"geometry":{"type":"Point","coordinates":[139.767515,35.679870000000051]},"properties":{"OBJECTID":335,"name":"ニューデイズ東京八重洲南","lon":139.767515,"lat":35.679870000000001}},{"type":"Feature","id":336,"geometry":{"type":"Point","coordinates":[139.77267600000005,35.697916000000077]},"properties":{"OBJECTID":336,"name":"ニューデイズ秋葉原","lon":139.77267599999999,"lat":35.697915999999999}},{"type":"Feature","id":337,"geometry":{"type":"Point","coordinates":[139.74794300000008,35.671796000000086]},"properties":{"OBJECTID":337,"name":"cisca霞が関コモンゲート店","lon":139.74794299999999,"lat":35.671796000000001}},{"type":"Feature","id":338,"geometry":{"type":"Point","coordinates":[139.7637830000001,35.699695000000077]},"properties":{"OBJECTID":338,"name":"ニューデイズ御茶ノ水改札内","lon":139.76378299999999,"lat":35.699694999999998}},{"type":"Feature","id":339,"geometry":{"type":"Point","coordinates":[139.74502300000006,35.702074000000039]},"properties":{"OBJECTID":339,"name":"ニューデイズエキュートエディション飯田橋西口","lon":139.745023,"lat":35.702074000000003}},{"type":"Feature","id":340,"geometry":{"type":"Point","coordinates":[139.76355100000001,35.67511200000007]},"properties":{"OBJECTID":340,"name":"ニューデイズエキュートエディション有楽町日比谷口","lon":139.76355100000001,"lat":35.675111999999999}},{"type":"Feature","id":341,"geometry":{"type":"Point","coordinates":[139.76355100000001,35.67511200000007]},"properties":{"OBJECTID":341,"name":"ニューデイズエキュートエディション有楽町京橋口","lon":139.76355100000001,"lat":35.675111999999999}},{"type":"Feature","id":342,"geometry":{"type":"Point","coordinates":[139.74913200000003,35.700845000000072]},"properties":{"OBJECTID":342,"name":"ニューデイズエドモント飯田橋","lon":139.749132,"lat":35.700845000000001}},{"type":"Feature","id":343,"geometry":{"type":"Point","coordinates":[139.767515,35.679870000000051]},"properties":{"OBJECTID":343,"name":"ニューデイズ東ホ6A","lon":139.767515,"lat":35.679870000000001}},{"type":"Feature","id":344,"geometry":{"type":"Point","coordinates":[139.76744400000007,35.697146000000089]},"properties":{"OBJECTID":344,"name":"ファミリーマート ホテルニュー神田店","lon":139.76744400000001,"lat":35.697145999999996}},{"type":"Feature","id":345,"geometry":{"type":"Point","coordinates":[139.75206300000002,35.693798000000072]},"properties":{"OBJECTID":345,"name":"ニューヤマザキデイリーストア九段坂病院店","lon":139.75206299999999,"lat":35.693798000000001}},{"type":"Feature","id":346,"geometry":{"type":"Point","coordinates":[139.7866600000001,35.679269000000033]},"properties":{"OBJECTID":346,"name":"ファミリーマート IBM箱崎ビル店","lon":139.78666000000001,"lat":35.679268999999998}},{"type":"Feature","id":347,"geometry":{"type":"Point","coordinates":[139.77375400000005,35.681382000000042]},"properties":{"OBJECTID":347,"name":"ローソン 日本橋高島屋三井ビルディング店","lon":139.773754,"lat":35.681381999999999}},{"type":"Feature","id":348,"geometry":{"type":"Point","coordinates":[139.78458499999999,35.684141000000068]},"properties":{"OBJECTID":348,"name":"ファミリーマート 水天宮前店","lon":139.78458499999999,"lat":35.684140999999997}},{"type":"Feature","id":349,"geometry":{"type":"Point","coordinates":[139.75989700000002,35.66847400000006]},"properties":{"OBJECTID":349,"name":"セブンイレブン 銀座8丁目店","lon":139.759897,"lat":35.668474000000003}},{"type":"Feature","id":350,"geometry":{"type":"Point","coordinates":[139.78430100000003,35.67427100000009]},"properties":{"OBJECTID":350,"name":"セブンイレブン 東京住友ツインビル西館店","lon":139.784301,"lat":35.674270999999997}},{"type":"Feature","id":351,"geometry":{"type":"Point","coordinates":[139.76921900000002,35.680353000000082]},"properties":{"OBJECTID":351,"name":"ローソン 八重洲中央口店","lon":139.76921899999999,"lat":35.680352999999997}},{"type":"Feature","id":352,"geometry":{"type":"Point","coordinates":[139.77055900000005,35.666182000000049]},"properties":{"OBJECTID":352,"name":"ローソン 築地四丁目店","lon":139.77055899999999,"lat":35.666181999999999}},{"type":"Feature","id":353,"geometry":{"type":"Point","coordinates":[139.78529800000001,35.670616000000052]},"properties":{"OBJECTID":353,"name":"ナチュラルローソン 佃二丁目店","lon":139.78529800000001,"lat":35.670616000000003}},{"type":"Feature","id":354,"geometry":{"type":"Point","coordinates":[139.77870700000005,35.682077000000049]},"properties":{"OBJECTID":354,"name":"セブンイレブン 兜町東証前店","lon":139.778707,"lat":35.682077}},{"type":"Feature","id":355,"geometry":{"type":"Point","coordinates":[139.77992500000005,35.68548700000008]},"properties":{"OBJECTID":355,"name":"セブンイレブン 日本橋人形町3丁目店","lon":139.77992499999999,"lat":35.685487000000002}},{"type":"Feature","id":356,"geometry":{"type":"Point","coordinates":[139.77826800000003,35.676411000000087]},"properties":{"OBJECTID":356,"name":"ローソン 八丁堀二丁目店","lon":139.778268,"lat":35.676411000000002}},{"type":"Feature","id":357,"geometry":{"type":"Point","coordinates":[139.77444100000002,35.680412000000047]},"properties":{"OBJECTID":357,"name":"セブンイレブン AIM太陽生命日本橋ビル店","lon":139.774441,"lat":35.680411999999997}},{"type":"Feature","id":358,"geometry":{"type":"Point","coordinates":[139.76893100000007,35.67940800000008]},"properties":{"OBJECTID":358,"name":"ファミリーマート バスターミナル東京八重洲/S店","lon":139.76893100000001,"lat":35.679408000000002}},{"type":"Feature","id":359,"geometry":{"type":"Point","coordinates":[139.76037600000006,35.671106000000066]},"properties":{"OBJECTID":359,"name":"セブンイレブン 銀座7丁目店","lon":139.76037600000001,"lat":35.671106000000002}},{"type":"Feature","id":360,"geometry":{"type":"Point","coordinates":[139.75971700000002,35.668850000000077]},"properties":{"OBJECTID":360,"name":"ローソン 銀座八丁目店","lon":139.75971699999999,"lat":35.668849999999999}},{"type":"Feature","id":361,"geometry":{"type":"Point","coordinates":[139.76789100000008,35.677970000000073]},"properties":{"OBJECTID":361,"name":"ローソン 八重洲二丁目外堀通店","lon":139.76789099999999,"lat":35.677970000000002}},{"type":"Feature","id":362,"geometry":{"type":"Point","coordinates":[139.76976100000002,35.653520000000071]},"properties":{"OBJECTID":362,"name":"ファミリーマート 豊海町店","lon":139.76976099999999,"lat":35.65352}},{"type":"Feature","id":363,"geometry":{"type":"Point","coordinates":[139.774,35.663933000000043]},"properties":{"OBJECTID":363,"name":"ローソン 築地六丁目店","lon":139.774,"lat":35.663933}},{"type":"Feature","id":364,"geometry":{"type":"Point","coordinates":[139.78481900000008,35.674945000000037]},"properties":{"OBJECTID":364,"name":"ナチュラルローソン 新川一丁目店","lon":139.784819,"lat":35.674945000000001}},{"type":"Feature","id":365,"geometry":{"type":"Point","coordinates":[139.76005700000007,35.668179000000066]},"properties":{"OBJECTID":365,"name":"ファミリーマート K2銀座八丁目店","lon":139.76005699999999,"lat":35.668179000000002}},{"type":"Feature","id":366,"geometry":{"type":"Point","coordinates":[139.78418500000009,35.684059000000047]},"properties":{"OBJECTID":366,"name":"ローソン メトロス水天宮前店","lon":139.78418500000001,"lat":35.684058999999998}},{"type":"Feature","id":367,"geometry":{"type":"Point","coordinates":[139.77646000000004,35.67441400000007]},"properties":{"OBJECTID":367,"name":"ファミリーマート 八丁堀四丁目店","lon":139.77645999999999,"lat":35.674413999999999}},{"type":"Feature","id":368,"geometry":{"type":"Point","coordinates":[139.78259700000001,35.678837000000044]},"properties":{"OBJECTID":368,"name":"ファミリーマート 茅場町駅東店","lon":139.78259700000001,"lat":35.678837000000001}},{"type":"Feature","id":369,"geometry":{"type":"Point","coordinates":[139.78295100000003,35.693752000000075]},"properties":{"OBJECTID":369,"name":"NEWDAYS MINI(ニューデイズミニ) 馬喰町1号店","lon":139.782951,"lat":35.693752000000003}},{"type":"Feature","id":370,"geometry":{"type":"Point","coordinates":[139.77180600000008,35.664195000000063]},"properties":{"OBJECTID":370,"name":"ファミリーマート 築地市場前店","lon":139.771806,"lat":35.664194999999999}},{"type":"Feature","id":371,"geometry":{"type":"Point","coordinates":[139.77470900000003,35.682119000000057]},"properties":{"OBJECTID":371,"name":"ナチュラルローソン 日本橋メトロピア店","lon":139.774709,"lat":35.682119}},{"type":"Feature","id":372,"geometry":{"type":"Point","coordinates":[139.76061400000003,35.667988000000037]},"properties":{"OBJECTID":372,"name":"ファミリーマート 銀座御門通り店","lon":139.760614,"lat":35.667988000000001}},{"type":"Feature","id":373,"geometry":{"type":"Point","coordinates":[139.76487900000006,35.669979000000069]},"properties":{"OBJECTID":373,"name":"ファミリーマート 銀座みゆき通り店","lon":139.76487900000001,"lat":35.669978999999998}},{"type":"Feature","id":374,"geometry":{"type":"Point","coordinates":[139.76893100000007,35.67940800000008]},"properties":{"OBJECTID":374,"name":"セブンイレブン 東京ミッドタウン八重洲店","lon":139.76893100000001,"lat":35.679408000000002}},{"type":"Feature","id":375,"geometry":{"type":"Point","coordinates":[139.78647599999999,35.681511000000057]},"properties":{"OBJECTID":375,"name":"セブンイレブン 日本橋T?CAT店","lon":139.78647599999999,"lat":35.681511}},{"type":"Feature","id":376,"geometry":{"type":"Point","coordinates":[139.77659000000006,35.68233900000007]},"properties":{"OBJECTID":376,"name":"セブンイレブン 日本橋1丁目昭和通り店","lon":139.77659,"lat":35.682338999999999}},{"type":"Feature","id":377,"geometry":{"type":"Point","coordinates":[139.78288100000009,35.683299000000034]},"properties":{"OBJECTID":377,"name":"セブンイレブン 日本橋蛎殻町店","lon":139.782881,"lat":35.683298999999998}},{"type":"Feature","id":378,"geometry":{"type":"Point","coordinates":[139.76858600000003,35.677242000000035]},"properties":{"OBJECTID":378,"name":"セブンイレブン 八重洲柳通り店","lon":139.768586,"lat":35.677242}},{"type":"Feature","id":379,"geometry":{"type":"Point","coordinates":[139.77700900000002,35.674238000000059]},"properties":{"OBJECTID":379,"name":"ロボットマート 八丁堀店","lon":139.77700899999999,"lat":35.674238000000003}},{"type":"Feature","id":380,"geometry":{"type":"Point","coordinates":[139.7843190000001,35.690943000000061]},"properties":{"OBJECTID":380,"name":"ミニストップ 東日本橋3丁目店","lon":139.78431900000001,"lat":35.690942999999997}},{"type":"Feature","id":381,"geometry":{"type":"Point","coordinates":[139.78286100000003,35.69550600000008]},"properties":{"OBJECTID":381,"name":"ミニストップ 日本橋馬喰町2丁目店","lon":139.782861,"lat":35.695506000000002}},{"type":"Feature","id":382,"geometry":{"type":"Point","coordinates":[139.77051900000004,35.687511000000086]},"properties":{"OBJECTID":382,"name":"ミニストップ 日本橋本石町店","lon":139.77051900000001,"lat":35.687511000000001}},{"type":"Feature","id":383,"geometry":{"type":"Point","coordinates":[139.78441900000007,35.675000000000068]},"properties":{"OBJECTID":383,"name":"ミニストップ 新川1丁目店","lon":139.78441900000001,"lat":35.674999999999997}},{"type":"Feature","id":384,"geometry":{"type":"Point","coordinates":[139.783141,35.682883000000061]},"properties":{"OBJECTID":384,"name":"ミニストップ 日本橋蛎殻町店","lon":139.783141,"lat":35.682882999999997}},{"type":"Feature","id":385,"geometry":{"type":"Point","coordinates":[139.7724730000001,35.675440000000037]},"properties":{"OBJECTID":385,"name":"ミニストップ 宝町駅前店","lon":139.77247299999999,"lat":35.675440000000002}},{"type":"Feature","id":386,"geometry":{"type":"Point","coordinates":[139.765128,35.662571000000071]},"properties":{"OBJECTID":386,"name":"生活彩家 浜離宮三井ビル店","lon":139.765128,"lat":35.662571}},{"type":"Feature","id":387,"geometry":{"type":"Point","coordinates":[139.77835200000004,35.690363000000048]},"properties":{"OBJECTID":387,"name":"セブンイレブン 小伝馬町駅前店","lon":139.77835200000001,"lat":35.690362999999998}},{"type":"Feature","id":388,"geometry":{"type":"Point","coordinates":[139.7742740000001,35.667994000000078]},"properties":{"OBJECTID":388,"name":"セブンイレブン 築地日刊スポーツ本社店","lon":139.77427399999999,"lat":35.667994}},{"type":"Feature","id":389,"geometry":{"type":"Point","coordinates":[139.77403600000002,35.674503000000072]},"properties":{"OBJECTID":389,"name":"セブンイレブン 中央区八丁堀4丁目店","lon":139.774036,"lat":35.674503000000001}},{"type":"Feature","id":390,"geometry":{"type":"Point","coordinates":[139.78058600000008,35.688605000000052]},"properties":{"OBJECTID":390,"name":"セブンイレブン 日本橋堀留町2丁目店","lon":139.780586,"lat":35.688605000000003}},{"type":"Feature","id":391,"geometry":{"type":"Point","coordinates":[139.78140300000007,35.681236000000069]},"properties":{"OBJECTID":391,"name":"セブンイレブン 日本橋小網町店","lon":139.78140300000001,"lat":35.681235999999998}},{"type":"Feature","id":392,"geometry":{"type":"Point","coordinates":[139.78596000000005,35.67697000000004]},"properties":{"OBJECTID":392,"name":"セブンイレブン 中央区新川1丁目店","lon":139.78595999999999,"lat":35.676969999999997}},{"type":"Feature","id":393,"geometry":{"type":"Point","coordinates":[139.78360300000008,35.664145000000076]},"properties":{"OBJECTID":393,"name":"セブンイレブン 月島駅前店","lon":139.783603,"lat":35.664144999999998}},{"type":"Feature","id":394,"geometry":{"type":"Point","coordinates":[139.78444500000001,35.666131000000064]},"properties":{"OBJECTID":394,"name":"セブンイレブン 中央区佃2丁目店","lon":139.78444500000001,"lat":35.666131}},{"type":"Feature","id":395,"geometry":{"type":"Point","coordinates":[139.778547,35.66680000000008]},"properties":{"OBJECTID":395,"name":"セブンイレブン 聖路加タワー店","lon":139.778547,"lat":35.666800000000002}},{"type":"Feature","id":396,"geometry":{"type":"Point","coordinates":[139.7829210000001,35.694149000000039]},"properties":{"OBJECTID":396,"name":"セブンイレブン 日本橋馬喰町店","lon":139.78292099999999,"lat":35.694149000000003}},{"type":"Feature","id":397,"geometry":{"type":"Point","coordinates":[139.78322100000003,35.691278000000068]},"properties":{"OBJECTID":397,"name":"セブンイレブン 東日本橋3丁目店","lon":139.783221,"lat":35.691277999999997}},{"type":"Feature","id":398,"geometry":{"type":"Point","coordinates":[139.78189900000007,35.675297000000057]},"properties":{"OBJECTID":398,"name":"セブンイレブン 中央区新川2丁目店","lon":139.78189900000001,"lat":35.675297}},{"type":"Feature","id":399,"geometry":{"type":"Point","coordinates":[139.77695800000004,35.660763000000088]},"properties":{"OBJECTID":399,"name":"セブンイレブン 勝どきグロウスタウン店","lon":139.77695800000001,"lat":35.660763000000003}},{"type":"Feature","id":400,"geometry":{"type":"Point","coordinates":[139.77579100000003,35.671257000000082]},"properties":{"OBJECTID":400,"name":"セブンイレブン 中央区入船3丁目店","lon":139.775791,"lat":35.671256999999997}},{"type":"Feature","id":401,"geometry":{"type":"Point","coordinates":[139.77902800000004,35.691354000000047]},"properties":{"OBJECTID":401,"name":"セブンイレブン 日本橋小伝馬町店","lon":139.77902800000001,"lat":35.691353999999997}},{"type":"Feature","id":402,"geometry":{"type":"Point","coordinates":[139.78793400000006,35.682272000000069]},"properties":{"OBJECTID":402,"name":"セブンイレブン T?CAT2階店","lon":139.78793400000001,"lat":35.682271999999998}},{"type":"Feature","id":403,"geometry":{"type":"Point","coordinates":[139.76352100000008,35.671998000000087]},"properties":{"OBJECTID":403,"name":"セブンイレブン 銀座地下街店","lon":139.763521,"lat":35.671998000000002}},{"type":"Feature","id":404,"geometry":{"type":"Point","coordinates":[139.778907,35.65578400000004]},"properties":{"OBJECTID":404,"name":"セブンイレブン ベイシティ晴海店","lon":139.778907,"lat":35.655783999999997}},{"type":"Feature","id":405,"geometry":{"type":"Point","coordinates":[139.76946700000008,35.669714000000056]},"properties":{"OBJECTID":405,"name":"セブンイレブン 銀座3丁目店","lon":139.76946699999999,"lat":35.669713999999999}},{"type":"Feature","id":406,"geometry":{"type":"Point","coordinates":[139.77103900000009,35.67125400000009]},"properties":{"OBJECTID":406,"name":"セブンイレブン 銀座2丁目店","lon":139.771039,"lat":35.671253999999998}},{"type":"Feature","id":407,"geometry":{"type":"Point","coordinates":[139.77657500000009,35.659737000000064]},"properties":{"OBJECTID":407,"name":"セブンイレブン 勝どき駅前店","lon":139.77657500000001,"lat":35.659737}},{"type":"Feature","id":408,"geometry":{"type":"Point","coordinates":[139.76524800000004,35.667103000000054]},"properties":{"OBJECTID":408,"name":"セブンイレブン 銀座7丁目東店","lon":139.76524800000001,"lat":35.667102999999997}},{"type":"Feature","id":409,"geometry":{"type":"Point","coordinates":[139.77179700000011,35.684939000000043]},"properties":{"OBJECTID":409,"name":"セブンイレブン 常盤橋店","lon":139.77179699999999,"lat":35.684939}},{"type":"Feature","id":410,"geometry":{"type":"Point","coordinates":[139.7725660000001,35.671355000000062]},"properties":{"OBJECTID":410,"name":"セブンイレブン 中央区役所前店","lon":139.77256600000001,"lat":35.671354999999998}},{"type":"Feature","id":411,"geometry":{"type":"Point","coordinates":[139.774585,35.666251000000045]},"properties":{"OBJECTID":411,"name":"セブンイレブン 築地7丁目店","lon":139.774585,"lat":35.666251000000003}},{"type":"Feature","id":412,"geometry":{"type":"Point","coordinates":[139.775711,35.676247000000046]},"properties":{"OBJECTID":412,"name":"セブンイレブン 八丁堀2丁目店","lon":139.775711,"lat":35.676246999999996}},{"type":"Feature","id":413,"geometry":{"type":"Point","coordinates":[139.77906700000005,35.678668000000073]},"properties":{"OBJECTID":413,"name":"セブンイレブン 日本橋茅場町2丁目店","lon":139.779067,"lat":35.678668000000002}},{"type":"Feature","id":414,"geometry":{"type":"Point","coordinates":[139.78463900000008,35.69221900000008]},"properties":{"OBJECTID":414,"name":"セブンイレブン 東日本橋駅前店","lon":139.784639,"lat":35.692219000000001}},{"type":"Feature","id":415,"geometry":{"type":"Point","coordinates":[139.78668600000003,35.684635000000071]},"properties":{"OBJECTID":415,"name":"セブンイレブン 日本橋浜町店","lon":139.786686,"lat":35.684635}},{"type":"Feature","id":416,"geometry":{"type":"Point","coordinates":[139.78495800000007,35.694571000000053]},"properties":{"OBJECTID":416,"name":"セブンイレブン 日本橋横山町店","lon":139.78495799999999,"lat":35.694571000000003}},{"type":"Feature","id":417,"geometry":{"type":"Point","coordinates":[139.77267700000004,35.66986600000007]},"properties":{"OBJECTID":417,"name":"セブンイレブン 中央区築地2丁目店","lon":139.77267699999999,"lat":35.669865999999999}},{"type":"Feature","id":418,"geometry":{"type":"Point","coordinates":[139.77203400000008,35.673696000000064]},"properties":{"OBJECTID":418,"name":"セブンイレブン 銀座1丁目店","lon":139.77203399999999,"lat":35.673696}},{"type":"Feature","id":419,"geometry":{"type":"Point","coordinates":[139.77633100000003,35.679347000000064]},"properties":{"OBJECTID":419,"name":"セブンイレブン 日本橋兜町店","lon":139.776331,"lat":35.679347}},{"type":"Feature","id":420,"geometry":{"type":"Point","coordinates":[139.77343500000006,35.688285000000064]},"properties":{"OBJECTID":420,"name":"セブンイレブン 日本橋室町3丁目店","lon":139.77343500000001,"lat":35.688285}},{"type":"Feature","id":421,"geometry":{"type":"Point","coordinates":[139.76800300000002,35.669750000000079]},"properties":{"OBJECTID":421,"name":"セブンイレブン 歌舞伎座タワー店","lon":139.76800299999999,"lat":35.669750000000001}},{"type":"Feature","id":422,"geometry":{"type":"Point","coordinates":[139.769002,35.673558000000071]},"properties":{"OBJECTID":422,"name":"セブンイレブン 銀座1丁目中央店","lon":139.769002,"lat":35.673558}},{"type":"Feature","id":423,"geometry":{"type":"Point","coordinates":[139.78306100000009,35.66555800000009]},"properties":{"OBJECTID":423,"name":"セブンイレブン 中央区月島1丁目店","lon":139.783061,"lat":35.665557999999997}},{"type":"Feature","id":424,"geometry":{"type":"Point","coordinates":[139.78408000000002,35.677394000000049]},"properties":{"OBJECTID":424,"name":"セブンイレブン 中央区新川1永代通店","lon":139.78407999999999,"lat":35.677394}},{"type":"Feature","id":425,"geometry":{"type":"Point","coordinates":[139.77272200000004,35.656267000000071]},"properties":{"OBJECTID":425,"name":"セブンイレブン 勝どき5丁目店","lon":139.77272199999999,"lat":35.656267}},{"type":"Feature","id":426,"geometry":{"type":"Point","coordinates":[139.77635100000009,35.689131000000089]},"properties":{"OBJECTID":426,"name":"セブンイレブン 日本橋本町3丁目店","lon":139.77635100000001,"lat":35.689131000000003}},{"type":"Feature","id":427,"geometry":{"type":"Point","coordinates":[139.76700600000004,35.665797000000055]},"properties":{"OBJECTID":427,"name":"セブンイレブン KOYOがんセンター中央病院店","lon":139.76700600000001,"lat":35.665796999999998}},{"type":"Feature","id":428,"geometry":{"type":"Point","coordinates":[139.76944300000002,35.677464000000043]},"properties":{"OBJECTID":428,"name":"セブンイレブン 京橋エドグランフロアスリー店","lon":139.769443,"lat":35.677464000000001}},{"type":"Feature","id":429,"geometry":{"type":"Point","coordinates":[139.782781,35.657372000000066]},"properties":{"OBJECTID":429,"name":"セブンイレブン 晴海トリトンスクエア店","lon":139.782781,"lat":35.657372000000002}},{"type":"Feature","id":430,"geometry":{"type":"Point","coordinates":[139.7775190000001,35.668872000000079]},"properties":{"OBJECTID":430,"name":"セブンイレブン 中央区明石町店","lon":139.77751900000001,"lat":35.668872}},{"type":"Feature","id":431,"geometry":{"type":"Point","coordinates":[139.76446900000008,35.668998000000045]},"properties":{"OBJECTID":431,"name":"セブンイレブン 銀座6丁目中央店","lon":139.76446899999999,"lat":35.668998000000002}},{"type":"Feature","id":432,"geometry":{"type":"Point","coordinates":[139.77179700000011,35.681710000000066]},"properties":{"OBJECTID":432,"name":"セブンイレブン 日本橋2丁目店","lon":139.77179699999999,"lat":35.681710000000002}},{"type":"Feature","id":433,"geometry":{"type":"Point","coordinates":[139.78179299999999,35.692594000000042]},"properties":{"OBJECTID":433,"name":"セブンイレブン 馬喰町駅前店","lon":139.78179299999999,"lat":35.692594}},{"type":"Feature","id":434,"geometry":{"type":"Point","coordinates":[139.778547,35.654599000000076]},"properties":{"OBJECTID":434,"name":"セブンイレブン 晴海3丁目店","lon":139.778547,"lat":35.654598999999997}},{"type":"Feature","id":435,"geometry":{"type":"Point","coordinates":[139.76149400000008,35.672630000000083]},"properties":{"OBJECTID":435,"name":"セブンイレブン 銀座ファイブ店","lon":139.761494,"lat":35.672629999999998}},{"type":"Feature","id":436,"geometry":{"type":"Point","coordinates":[139.7809840000001,35.685535000000073]},"properties":{"OBJECTID":436,"name":"セブンイレブン 人形町駅西店","lon":139.78098399999999,"lat":35.685535000000002}},{"type":"Feature","id":437,"geometry":{"type":"Point","coordinates":[139.78789500000005,35.65712300000007]},"properties":{"OBJECTID":437,"name":"セブンイレブン 晴海2丁目店","lon":139.78789499999999,"lat":35.657122999999999}},{"type":"Feature","id":438,"geometry":{"type":"Point","coordinates":[139.78499800000009,35.689457000000061]},"properties":{"OBJECTID":438,"name":"セブンイレブン 日本橋久松町店","lon":139.784998,"lat":35.689456999999997}},{"type":"Feature","id":439,"geometry":{"type":"Point","coordinates":[139.77946600000007,35.679976000000067]},"properties":{"OBJECTID":439,"name":"セブンイレブン 茅場町駅前店","lon":139.77946600000001,"lat":35.679976000000003}},{"type":"Feature","id":440,"geometry":{"type":"Point","coordinates":[139.78386,35.690848000000074]},"properties":{"OBJECTID":440,"name":"セブンイレブン 馬喰横山駅前店","lon":139.78386,"lat":35.690848000000003}},{"type":"Feature","id":441,"geometry":{"type":"Point","coordinates":[139.77051700000004,35.67687600000005]},"properties":{"OBJECTID":441,"name":"セブンイレブン 京橋駅前店","lon":139.77051700000001,"lat":35.676876}},{"type":"Feature","id":442,"geometry":{"type":"Point","coordinates":[139.7806240000001,35.671937000000071]},"properties":{"OBJECTID":442,"name":"セブンイレブン 中央区湊1丁目店","lon":139.78062399999999,"lat":35.671937}},{"type":"Feature","id":443,"geometry":{"type":"Point","coordinates":[139.78473600000007,35.683235000000082]},"properties":{"OBJECTID":443,"name":"セブンイレブン 水天宮前店","lon":139.78473600000001,"lat":35.683235000000003}},{"type":"Feature","id":444,"geometry":{"type":"Point","coordinates":[139.77729800000009,35.667309000000046]},"properties":{"OBJECTID":444,"name":"セブンイレブン KOYO聖路加国際病院店","lon":139.777298,"lat":35.667309000000003}},{"type":"Feature","id":445,"geometry":{"type":"Point","coordinates":[139.76363100000003,35.667908000000068]},"properties":{"OBJECTID":445,"name":"セブンイレブン 銀座7丁目中央店","lon":139.763631,"lat":35.667907999999997}},{"type":"Feature","id":446,"geometry":{"type":"Point","coordinates":[139.77085900000009,35.677370000000053]},"properties":{"OBJECTID":446,"name":"セブンイレブン DR東京京橋ロイネット店","lon":139.770859,"lat":35.677370000000003}},{"type":"Feature","id":447,"geometry":{"type":"Point","coordinates":[139.77237700000001,35.689457000000061]},"properties":{"OBJECTID":447,"name":"セブンイレブン 日本橋室町4丁目店","lon":139.77237700000001,"lat":35.689456999999997}},{"type":"Feature","id":448,"geometry":{"type":"Point","coordinates":[139.7710780000001,35.679915000000051]},"properties":{"OBJECTID":448,"name":"セブンイレブン 日本橋3丁目店","lon":139.77107799999999,"lat":35.679915000000001}},{"type":"Feature","id":449,"geometry":{"type":"Point","coordinates":[139.78394500000002,35.687151000000085]},"properties":{"OBJECTID":449,"name":"セブンイレブン 日本橋人形町2丁目店","lon":139.78394499999999,"lat":35.687151}},{"type":"Feature","id":450,"geometry":{"type":"Point","coordinates":[139.78631700000005,35.687617000000046]},"properties":{"OBJECTID":450,"name":"ローソン 日本橋浜町二丁目店","lon":139.786317,"lat":35.687617000000003}},{"type":"Feature","id":451,"geometry":{"type":"Point","coordinates":[139.77591100000006,35.657921000000044]},"properties":{"OBJECTID":451,"name":"ローソン 勝どき四丁目店","lon":139.77591100000001,"lat":35.657921000000002}},{"type":"Feature","id":452,"geometry":{"type":"Point","coordinates":[139.771837,35.682910000000049]},"properties":{"OBJECTID":452,"name":"ローソン 八重洲一丁目店","lon":139.771837,"lat":35.68291}},{"type":"Feature","id":453,"geometry":{"type":"Point","coordinates":[139.77978600000006,35.678884000000039]},"properties":{"OBJECTID":453,"name":"ローソン 日本橋茅場町店","lon":139.779786,"lat":35.678883999999996}},{"type":"Feature","id":454,"geometry":{"type":"Point","coordinates":[139.77852700000005,35.658090000000072]},"properties":{"OBJECTID":454,"name":"ローソン 勝どき二丁目店","lon":139.778527,"lat":35.658090000000001}},{"type":"Feature","id":455,"geometry":{"type":"Point","coordinates":[139.77764999999999,35.671272000000044]},"properties":{"OBJECTID":455,"name":"ローソン 入船店","lon":139.77764999999999,"lat":35.671272000000002}},{"type":"Feature","id":456,"geometry":{"type":"Point","coordinates":[139.77389400000004,35.672990000000084]},"properties":{"OBJECTID":456,"name":"ローソン 新富一丁目店","lon":139.77389400000001,"lat":35.672989999999999}},{"type":"Feature","id":457,"geometry":{"type":"Point","coordinates":[139.77302500000008,35.679001000000085]},"properties":{"OBJECTID":457,"name":"ローソン 日本橋三丁目店","lon":139.77302499999999,"lat":35.679001}},{"type":"Feature","id":458,"geometry":{"type":"Point","coordinates":[139.76492800000005,35.669056000000069]},"properties":{"OBJECTID":458,"name":"セブンイレブン 銀座6丁目中央店","lon":139.764928,"lat":35.669055999999998}},{"type":"Feature","id":459,"geometry":{"type":"Point","coordinates":[139.77754900000002,35.685163000000045]},"properties":{"OBJECTID":459,"name":"セブンイレブン 日本橋本町1丁目店","lon":139.77754899999999,"lat":35.685163000000003}},{"type":"Feature","id":460,"geometry":{"type":"Point","coordinates":[139.78163700000005,35.678486000000078]},"properties":{"OBJECTID":460,"name":"セブンイレブン 新川1丁目中央店","lon":139.78163699999999,"lat":35.678485999999999}},{"type":"Feature","id":461,"geometry":{"type":"Point","coordinates":[139.77866400000005,35.677035000000046]},"properties":{"OBJECTID":461,"name":"セブンイレブン 八丁堀1丁目店","lon":139.77866399999999,"lat":35.677034999999997}},{"type":"Feature","id":462,"geometry":{"type":"Point","coordinates":[139.77166800000009,35.687873000000081]},"properties":{"OBJECTID":462,"name":"セブンイレブン 日本橋本石町3丁目店","lon":139.77166800000001,"lat":35.687873000000003}},{"type":"Feature","id":463,"geometry":{"type":"Point","coordinates":[139.77312600000005,35.678306000000077]},"properties":{"OBJECTID":463,"name":"セブンイレブン 京橋1丁目店","lon":139.77312599999999,"lat":35.678305999999999}},{"type":"Feature","id":464,"geometry":{"type":"Point","coordinates":[139.77008000000001,35.675748000000056]},"properties":{"OBJECTID":464,"name":"セブンイレブン 京橋相互館110タワー店","lon":139.77008000000001,"lat":35.675747999999999}},{"type":"Feature","id":465,"geometry":{"type":"Point","coordinates":[139.76786400000003,35.672116000000074]},"properties":{"OBJECTID":465,"name":"ローソン H銀座三丁目店","lon":139.767864,"lat":35.672116000000003}},{"type":"Feature","id":466,"geometry":{"type":"Point","coordinates":[139.77020000000005,35.670882000000063]},"properties":{"OBJECTID":466,"name":"ナチュラルローソン 銀座二丁目店","lon":139.77019999999999,"lat":35.670881999999999}},{"type":"Feature","id":467,"geometry":{"type":"Point","coordinates":[139.76107500000001,35.669538000000045]},"properties":{"OBJECTID":467,"name":"ナチュラルローソン NL銀座並木通店","lon":139.76107500000001,"lat":35.669538000000003}},{"type":"Feature","id":468,"geometry":{"type":"Point","coordinates":[139.76674500000001,35.66833100000008]},"properties":{"OBJECTID":468,"name":"ローソン 銀座五丁目店","lon":139.76674499999999,"lat":35.668331000000002}},{"type":"Feature","id":469,"geometry":{"type":"Point","coordinates":[139.78370000000007,35.66114900000008]},"properties":{"OBJECTID":469,"name":"ローソン H月島四丁目店","lon":139.78370000000001,"lat":35.661149000000002}},{"type":"Feature","id":470,"geometry":{"type":"Point","coordinates":[139.782781,35.657372000000066]},"properties":{"OBJECTID":470,"name":"ローソン 晴海トリトンスクエア店","lon":139.782781,"lat":35.657372000000002}},{"type":"Feature","id":471,"geometry":{"type":"Point","coordinates":[139.768642,35.667710000000056]},"properties":{"OBJECTID":471,"name":"ナチュラルローソン 築地東劇ビル店","lon":139.768642,"lat":35.66771}},{"type":"Feature","id":472,"geometry":{"type":"Point","coordinates":[139.78257600000006,35.675117000000057]},"properties":{"OBJECTID":472,"name":"ローソン H新川二丁目店","lon":139.78257600000001,"lat":35.675117}},{"type":"Feature","id":473,"geometry":{"type":"Point","coordinates":[139.76560700000005,35.662332000000049]},"properties":{"OBJECTID":473,"name":"ローソン 築地五丁目店","lon":139.76560699999999,"lat":35.662331999999999}},{"type":"Feature","id":474,"geometry":{"type":"Point","coordinates":[139.78190000000006,35.674486000000059]},"properties":{"OBJECTID":474,"name":"ナチュラルローソン NL新川二丁目店","lon":139.78190000000001,"lat":35.674486000000002}},