{"type":"FeatureCollection","features":[{"type":"Feature","id":1,"geometry":{"type":"Point","coordinates":[139.76241200000004,35.664978000000076]},"properties":{"OBJECTID":1,"name":"アドミュージアム東京","lon":139.76241200000001,"lat":35.664977999999998}},{"type":"Feature","id":2,"geometry":{"type":"Point","coordinates":[139.7609030000001,35.676685000000077]},"properties":{"OBJECTID":2,"name":"出光美術館","lon":139.76090300000001,"lat":35.676684999999999}},{"type":"Feature","id":3,"geometry":{"type":"Point","coordinates":[139.74829099999999,35.663794000000053]},"properties":{"OBJECTID":3,"name":"ＮＨＫ放送博物館","lon":139.74829099999999,"lat":35.663794000000003}},{"type":"Feature","id":4,"geometry":{"type":"Point","coordinates":[139.71305000000007,35.652220000000057]},"properties":{"OBJECTID":4,"name":"エマーユ七宝美術館","lon":139.71305000000001,"lat":35.65222}},{"type":"Feature","id":5,"geometry":{"type":"Point","coordinates":[139.74325500000009,35.666991000000053]},"properties":{"OBJECTID":5,"name":"大倉集古館","lon":139.743255,"lat":35.666991000000003}},{"type":"Feature","id":6,"geometry":{"type":"Point","coordinates":[139.70496900000001,35.66940100000005]},"properties":{"OBJECTID":6,"name":"太田記念美術館","lon":139.70496900000001,"lat":35.669401000000001}},{"type":"Feature","id":7,"geometry":{"type":"Point","coordinates":[139.74236000000008,35.690988000000061]},"properties":{"OBJECTID":7,"name":"大妻女子大学博物館","lon":139.74235999999999,"lat":35.690987999999997}},{"type":"Feature","id":8,"geometry":{"type":"Point","coordinates":[139.7530230000001,35.691189000000065]},"properties":{"OBJECTID":8,"name":"科学技術館","lon":139.75302300000001,"lat":35.691189000000001}},{"type":"Feature","id":9,"geometry":{"type":"Point","coordinates":[139.74443500000007,35.666063000000065]},"properties":{"OBJECTID":9,"name":"菊池寛実記念 智美術館","lon":139.74443500000001,"lat":35.666063000000001}},{"type":"Feature","id":10,"geometry":{"type":"Point","coordinates":[139.75381400000003,35.683823000000075]},"properties":{"OBJECTID":10,"name":"宮内庁三の丸尚蔵館","lon":139.75381400000001,"lat":35.683822999999997}},{"type":"Feature","id":11,"geometry":{"type":"Point","coordinates":[139.71464200000003,35.634602000000086]},"properties":{"OBJECTID":11,"name":"久米美術館","lon":139.714642,"lat":35.634602000000001}},{"type":"Feature","id":12,"geometry":{"type":"Point","coordinates":[139.68003800000008,35.667820000000063]},"properties":{"OBJECTID":12,"name":"古賀政男音楽博物館","lon":139.680038,"lat":35.667819999999999}},{"type":"Feature","id":13,"geometry":{"type":"Point","coordinates":[139.71165000000008,35.655644000000052]},"properties":{"OBJECTID":13,"name":"國學院大學博物館","lon":139.71164999999999,"lat":35.655644000000002}},{"type":"Feature","id":14,"geometry":{"type":"Point","coordinates":[139.72629300000006,35.665094000000067]},"properties":{"OBJECTID":14,"name":"国立新美術館","lon":139.726293,"lat":35.665094000000003}},{"type":"Feature","id":15,"geometry":{"type":"Point","coordinates":[139.71497900000008,35.681742000000042]},"properties":{"OBJECTID":15,"name":"佐藤美術館","lon":139.714979,"lat":35.681742}},{"type":"Feature","id":16,"geometry":{"type":"Point","coordinates":[139.73013000000003,35.66607300000004]},"properties":{"OBJECTID":16,"name":"サントリー美術館","lon":139.73013,"lat":35.666072999999997}},{"type":"Feature","id":17,"geometry":{"type":"Point","coordinates":[139.73015300000009,35.596660000000043]},"properties":{"OBJECTID":17,"name":"品川区立品川歴史館","lon":139.730153,"lat":35.59666}},{"type":"Feature","id":18,"geometry":{"type":"Point","coordinates":[139.69178800000009,35.658680000000061]},"properties":{"OBJECTID":18,"name":"渋谷区立松濤美術館","lon":139.691788,"lat":35.658679999999997}},{"type":"Feature","id":19,"geometry":{"type":"Point","coordinates":[139.752206,35.69495500000005]},"properties":{"OBJECTID":19,"name":"しょうけい館（戦傷病者史料館）","lon":139.752206,"lat":35.694955}},{"type":"Feature","id":20,"geometry":{"type":"Point","coordinates":[139.75110000000006,35.695205000000044]},"properties":{"OBJECTID":20,"name":"昭和館","lon":139.75110000000001,"lat":35.695205000000001}},{"type":"Feature","id":21,"geometry":{"type":"Point","coordinates":[139.71256100000005,35.656392000000039]},"properties":{"OBJECTID":21,"name":"白根記念渋谷区郷土博物館・文学館","lon":139.71256099999999,"lat":35.656391999999997}},{"type":"Feature","id":22,"geometry":{"type":"Point","coordinates":[139.72587500000009,35.68994900000007]},"properties":{"OBJECTID":22,"name":"新宿区立新宿歴史博物館","lon":139.725875,"lat":35.689948999999999}},{"type":"Feature","id":23,"geometry":{"type":"Point","coordinates":[139.71585600000003,35.63162200000005]},"properties":{"OBJECTID":23,"name":"杉野学園衣裳博物館","lon":139.715856,"lat":35.631622}},{"type":"Feature","id":24,"geometry":{"type":"Point","coordinates":[139.69615300000009,35.692684000000042]},"properties":{"OBJECTID":24,"name":"SOMPO美術館","lon":139.69615300000001,"lat":35.692684}},{"type":"Feature","id":25,"geometry":{"type":"Point","coordinates":[139.729108,35.69092100000006]},"properties":{"OBJECTID":25,"name":"帝国データバンク史料館","lon":139.729108,"lat":35.690921000000003}},{"type":"Feature","id":26,"geometry":{"type":"Point","coordinates":[139.7546420000001,35.69054200000005]},"properties":{"OBJECTID":26,"name":"東京国立近代美術館","lon":139.75464199999999,"lat":35.690542000000001}},{"type":"Feature","id":27,"geometry":{"type":"Point","coordinates":[139.80799500000001,35.679725000000076]},"properties":{"OBJECTID":27,"name":"東京都現代美術館","lon":139.80799500000001,"lat":35.679724999999998}},{"type":"Feature","id":28,"geometry":{"type":"Point","coordinates":[139.71938,35.636858000000075]},"properties":{"OBJECTID":28,"name":"東京都庭園美術館","lon":139.71938,"lat":35.636857999999997}},{"type":"Feature","id":29,"geometry":{"type":"Point","coordinates":[139.741398,35.699399000000085]},"properties":{"OBJECTID":29,"name":"東京理科大学近代科学資料館","lon":139.741398,"lat":35.699399}},{"type":"Feature","id":30,"geometry":{"type":"Point","coordinates":[139.7326250000001,35.675287000000083]},"properties":{"OBJECTID":30,"name":"虎屋文庫","lon":139.73262500000001,"lat":35.675286999999997}},{"type":"Feature","id":31,"geometry":{"type":"Point","coordinates":[139.77655100000004,35.619184000000075]},"properties":{"OBJECTID":31,"name":"日本科学未来館","lon":139.77655100000001,"lat":35.619183999999997}},{"type":"Feature","id":32,"geometry":{"type":"Point","coordinates":[139.74257900000009,35.686064000000044]},"properties":{"OBJECTID":32,"name":"日本カメラ博物館","lon":139.74257900000001,"lat":35.686064000000002}},{"type":"Feature","id":33,"geometry":{"type":"Point","coordinates":[139.77179100000001,35.685370000000034]},"properties":{"OBJECTID":33,"name":"日本銀行金融研究所 貨幣博物館","lon":139.77179100000001,"lat":35.685369999999999}},{"type":"Feature","id":34,"geometry":{"type":"Point","coordinates":[139.71754300000009,35.662138000000084]},"properties":{"OBJECTID":34,"name":"根津美術館","lon":139.71754300000001,"lat":35.662137999999999}},{"type":"Feature","id":35,"geometry":{"type":"Point","coordinates":[139.76186400000006,35.665883000000065]},"properties":{"OBJECTID":35,"name":"パナソニック汐留美術館","lon":139.761864,"lat":35.665883000000001}},{"type":"Feature","id":36,"geometry":{"type":"Point","coordinates":[139.73530500000004,35.620421000000078]},"properties":{"OBJECTID":36,"name":"翡翠原石館","lon":139.73530500000001,"lat":35.620421}},{"type":"Feature","id":37,"geometry":{"type":"Point","coordinates":[139.77236500000004,35.620345000000043]},"properties":{"OBJECTID":37,"name":"船の科学館","lon":139.77236500000001,"lat":35.620345}},{"type":"Feature","id":38,"geometry":{"type":"Point","coordinates":[139.69491400000004,35.686235000000067]},"properties":{"OBJECTID":38,"name":"文化学園服飾博物館","lon":139.69491400000001,"lat":35.686235000000003}},{"type":"Feature","id":39,"geometry":{"type":"Point","coordinates":[139.69570500000009,35.660739000000035]},"properties":{"OBJECTID":39,"name":"Bunkamura ザ・ミュージアム","lon":139.695705,"lat":35.660739}},{"type":"Feature","id":40,"geometry":{"type":"Point","coordinates":[139.6925950000001,35.691420000000051]},"properties":{"OBJECTID":40,"name":"平和祈念展示資料館","lon":139.69259500000001,"lat":35.691420000000001}},{"type":"Feature","id":41,"geometry":{"type":"Point","coordinates":[139.72180200000003,35.639955000000043]},"properties":{"OBJECTID":41,"name":"松岡美術館","lon":139.721802,"lat":35.639955}},{"type":"Feature","id":42,"geometry":{"type":"Point","coordinates":[139.772921,35.686393000000066]},"properties":{"OBJECTID":42,"name":"三井記念美術館","lon":139.772921,"lat":35.686393000000002}},{"type":"Feature","id":43,"geometry":{"type":"Point","coordinates":[139.76336900000001,35.678499000000045]},"properties":{"OBJECTID":43,"name":"三菱一号館美術館","lon":139.76336900000001,"lat":35.678499000000002}},{"type":"Feature","id":44,"geometry":{"type":"Point","coordinates":[139.7263660000001,35.639391000000046]},"properties":{"OBJECTID":44,"name":"港区立郷土歴史館","lon":139.72636600000001,"lat":35.639391000000003}},{"type":"Feature","id":45,"geometry":{"type":"Point","coordinates":[139.71929,35.682619000000045]},"properties":{"OBJECTID":45,"name":"民音音楽博物館","lon":139.71929,"lat":35.682619000000003}},{"type":"Feature","id":46,"geometry":{"type":"Point","coordinates":[139.76144700000009,35.697530000000086]},"properties":{"OBJECTID":46,"name":"明治大学博物館","lon":139.761447,"lat":35.69753}},{"type":"Feature","id":47,"geometry":{"type":"Point","coordinates":[139.7292480000001,35.660416000000055]},"properties":{"OBJECTID":47,"name":"森美術館","lon":139.72924800000001,"lat":35.660415999999998}},{"type":"Feature","id":48,"geometry":{"type":"Point","coordinates":[139.74254800000006,35.694038000000035]},"properties":{"OBJECTID":48,"name":"靖國神社遊就館","lon":139.742548,"lat":35.694037999999999}},{"type":"Feature","id":49,"geometry":{"type":"Point","coordinates":[139.71371500000009,35.653238000000044]},"properties":{"OBJECTID":49,"name":"山種美術館","lon":139.71371500000001,"lat":35.653238000000002}},{"type":"Feature","id":50,"geometry":{"type":"Point","coordinates":[139.7190720000001,35.709150000000079]},"properties":{"OBJECTID":50,"name":"早稲田大学會津八一記念博物館","lon":139.71907200000001,"lat":35.709150000000001}},{"type":"Feature","id":51,"geometry":{"type":"Point","coordinates":[139.7190720000001,35.709150000000079]},"properties":{"OBJECTID":51,"name":"早稲田大学坪内博士記念演劇博物館","lon":139.71907200000001,"lat":35.709150000000001}},{"type":"Feature","id":52,"geometry":{"type":"Point","coordinates":[139.734059,35.659703000000036]},"properties":{"OBJECTID":52,"name":"六本木ミュージアム","lon":139.734059,"lat":35.659703}},{"type":"Feature","id":53,"geometry":{"type":"Point","coordinates":[139.76875400000006,35.681185000000085]},"properties":{"OBJECTID":53,"name":"東京ステーションギャラリー","lon":139.768754,"lat":35.681184999999999}},{"type":"Feature","id":54,"geometry":{"type":"Point","coordinates":[139.7292480000001,35.660416000000055]},"properties":{"OBJECTID":54,"name":"森アーツセンターギャラリー","lon":139.72924800000001,"lat":35.660415999999998}},{"type":"Feature","id":55,"geometry":{"type":"Point","coordinates":[139.61927300000002,35.622333000000083]},"properties":{"OBJECTID":55,"name":"静嘉堂文庫美術館","lon":139.61927299999999,"lat":35.622332999999998}},{"type":"Feature","id":56,"geometry":{"type":"Point","coordinates":[139.71766200000002,35.678800000000081]},"properties":{"OBJECTID":56,"name":"聖徳記念絵画館","lon":139.71766199999999,"lat":35.678800000000003}},{"type":"Feature","id":57,"geometry":{"type":"Point","coordinates":[139.71811300000002,35.660144000000059]},"properties":{"OBJECTID":57,"name":"紅ミュージアム","lon":139.71811299999999,"lat":35.660144000000003}},{"type":"Feature","id":58,"geometry":{"type":"Point","coordinates":[139.772066,35.678766000000053]},"properties":{"OBJECTID":58,"name":"アーティゾン美術館","lon":139.772066,"lat":35.678766000000003}},{"type":"Feature","id":59,"geometry":{"type":"Point","coordinates":[139.76016900000002,35.690550000000087]},"properties":{"OBJECTID":59,"name":"丸紅ギャラリー","lon":139.76016899999999,"lat":35.690550000000002}},{"type":"Feature","id":60,"geometry":{"type":"Point","coordinates":[139.76555800000006,35.67334100000005]},"properties":{"OBJECTID":60,"name":"ATELIER MUJI GINZA","lon":139.765558,"lat":35.673341000000001}},{"type":"Feature","id":61,"geometry":{"type":"Point","coordinates":[139.7304640000001,35.667527000000064]},"properties":{"OBJECTID":61,"name":"21_21 DESIGN SIGHT","lon":139.73046400000001,"lat":35.667527}},{"type":"Feature","id":62,"geometry":{"type":"Point","coordinates":[139.76149800000007,35.665997000000061]},"properties":{"OBJECTID":62,"name":"旧新橋停車場　鉄道歴史展示室","lon":139.76149799999999,"lat":35.665996999999997}},{"type":"Feature","id":63,"geometry":{"type":"Point","coordinates":[139.69989700000008,35.675875000000076]},"properties":{"OBJECTID":63,"name":"明治神宮ミュージアム","lon":139.69989699999999,"lat":35.675874999999998}},{"type":"Feature","id":64,"geometry":{"type":"Point","coordinates":[139.74105300000008,35.665078000000051]},"properties":{"OBJECTID":64,"name":"泉屋博古館東京","lon":139.74105299999999,"lat":35.665078000000001}},{"type":"Feature","id":65,"geometry":{"type":"Point","coordinates":[139.71398800000009,35.65956900000009]},"properties":{"OBJECTID":65,"name":"ヨックモックミュージアム","lon":139.713988,"lat":35.659568999999998}},{"type":"Feature","id":66,"geometry":{"type":"Point","coordinates":[139.70262000000002,35.662030000000073]},"properties":{"OBJECTID":66,"name":"DIESEL ART GALLERY","lon":139.70262,"lat":35.662030000000001}},{"type":"Feature","id":67,"geometry":{"type":"Point","coordinates":[139.74257900000009,35.686064000000044]},"properties":{"OBJECTID":67,"name":"半蔵門ミュージアム","lon":139.74257900000001,"lat":35.686064000000002}},{"type":"Feature","id":68,"geometry":{"type":"Point","coordinates":[139.77066300000001,35.675494000000072]},"properties":{"OBJECTID":68,"name":"国立映画アーカイブ","lon":139.77066300000001,"lat":35.675494}},{"type":"Feature","id":69,"geometry":{"type":"Point","coordinates":[139.68685400000004,35.682938000000036]},"properties":{"OBJECTID":69,"name":"NTTインターコミュニケーション・センター [ICC]","lon":139.68685400000001,"lat":35.682938}},{"type":"Feature","id":70,"geometry":{"type":"Point","coordinates":[139.78588200000002,35.681652000000042]},"properties":{"OBJECTID":70,"name":"ミュゼ浜口陽三・ヤマサコレクション","lon":139.78588199999999,"lat":35.681652}},{"type":"Feature","id":71,"geometry":{"type":"Point","coordinates":[139.68685400000004,35.682938000000036]},"properties":{"OBJECTID":71,"name":"東京オペラシティ アートギャラリー","lon":139.68685400000001,"lat":35.682938}},{"type":"Feature","id":72,"geometry":{"type":"Point","coordinates":[139.76185300000009,35.668555000000083]},"properties":{"OBJECTID":72,"name":"資生堂ギャラリー","lon":139.761853,"lat":35.668554999999998}},{"type":"Feature","id":73,"geometry":{"type":"Point","coordinates":[139.76350300000001,35.676946000000044]},"properties":{"OBJECTID":73,"name":"相田みつを美術館","lon":139.76350299999999,"lat":35.676946000000001}},{"type":"Feature","id":74,"geometry":{"type":"Point","coordinates":[139.70060599999999,35.662382000000036]},"properties":{"OBJECTID":74,"name":"古代エジプト美術館","lon":139.70060599999999,"lat":35.662382000000001}},{"type":"Feature","id":75,"geometry":{"type":"Point","coordinates":[139.71337100000005,35.670668000000035]},"properties":{"OBJECTID":75,"name":"ワタリウム美術館","lon":139.713371,"lat":35.670667999999999}},{"type":"Feature","id":76,"geometry":{"type":"Point","coordinates":[139.73123400000009,35.666201000000058]},"properties":{"OBJECTID":76,"name":"東京ミッドタウン・デザインハブ","lon":139.731234,"lat":35.666201000000001}},{"type":"Feature","id":77,"geometry":{"type":"Point","coordinates":[139.76786900000002,35.674330000000054]},"properties":{"OBJECTID":77,"name":"ポーラ ミュージアム アネックス","lon":139.76786899999999,"lat":35.674329999999998}},{"type":"Feature","id":78,"geometry":{"type":"Point","coordinates":[139.767561,35.671177000000057]},"properties":{"OBJECTID":78,"name":"セントラルミュージアム銀座","lon":139.767561,"lat":35.671177}},{"type":"Feature","id":79,"geometry":{"type":"Point","coordinates":[139.74871200000007,35.620908000000043]},"properties":{"OBJECTID":79,"name":"WHAT MUSEUM","lon":139.74871200000001,"lat":35.620908}},{"type":"Feature","id":80,"geometry":{"type":"Point","coordinates":[139.69279300000005,35.661429000000055]},"properties":{"OBJECTID":80,"name":"戸栗美術館","lon":139.69279299999999,"lat":35.661428999999998}},{"type":"Feature","id":81,"geometry":{"type":"Point","coordinates":[139.72896100000003,35.666219000000069]},"properties":{"OBJECTID":81,"name":"とらや 東京ミッドタウン店ギャラリー","lon":139.728961,"lat":35.666218999999998}},{"type":"Feature","id":82,"geometry":{"type":"Point","coordinates":[139.743379,35.681545000000085]},"properties":{"OBJECTID":82,"name":"伝統芸能情報館","lon":139.743379,"lat":35.681545}},{"type":"Feature","id":83,"geometry":{"type":"Point","coordinates":[139.76073100000008,35.675899000000072]},"properties":{"OBJECTID":83,"name":"第一生命ギャラリー","lon":139.76073099999999,"lat":35.675899000000001}},{"type":"Feature","id":84,"geometry":{"type":"Point","coordinates":[139.73139500000002,35.661844000000087]},"properties":{"OBJECTID":84,"name":"ペロタン東京","lon":139.73139499999999,"lat":35.661844000000002}},{"type":"Feature","id":85,"geometry":{"type":"Point","coordinates":[139.744235,35.678423000000066]},"properties":{"OBJECTID":85,"name":"国立国会図書館東京本館","lon":139.744235,"lat":35.678423000000002}},{"type":"Feature","id":86,"geometry":{"type":"Point","coordinates":[139.71786500000007,35.689821000000052]},"properties":{"OBJECTID":86,"name":"東京おもちゃ美術館","lon":139.71786499999999,"lat":35.689821000000002}},{"type":"Feature","id":87,"geometry":{"type":"Point","coordinates":[139.76668300000006,35.672274000000073]},"properties":{"OBJECTID":87,"name":"松屋銀座","lon":139.766683,"lat":35.672274000000002}},{"type":"Feature","id":88,"geometry":{"type":"Point","coordinates":[139.718751,35.688335000000052]},"properties":{"OBJECTID":88,"name":"美術愛住館","lon":139.718751,"lat":35.688335000000002}},{"type":"Feature","id":89,"geometry":{"type":"Point","coordinates":[139.74544100000003,35.658592000000056]},"properties":{"OBJECTID":89,"name":"東京タワー","lon":139.745441,"lat":35.658591999999999}},{"type":"Feature","id":90,"geometry":{"type":"Point","coordinates":[139.73228200000005,35.629051000000061]},"properties":{"OBJECTID":90,"name":"物流博物館","lon":139.732282,"lat":35.629050999999997}},{"type":"Feature","id":91,"geometry":{"type":"Point","coordinates":[139.76327200000003,35.687856000000068]},"properties":{"OBJECTID":91,"name":"大手町三井ホール","lon":139.763272,"lat":35.687855999999996}},{"type":"Feature","id":92,"geometry":{"type":"Point","coordinates":[139.7175850000001,35.663402000000076]},"properties":{"OBJECTID":92,"name":"秋山庄太郎写真芸術館","lon":139.71758500000001,"lat":35.663401999999998}},{"type":"Feature","id":93,"geometry":{"type":"Point","coordinates":[139.73938600000008,35.66129200000006]},"properties":{"OBJECTID":93,"name":"外務省外交史料館","lon":139.739386,"lat":35.661292000000003}},{"type":"Feature","id":94,"geometry":{"type":"Point","coordinates":[139.76350300000001,35.676946000000044]},"properties":{"OBJECTID":94,"name":"東京国際フォーラム","lon":139.76350299999999,"lat":35.676946000000001}},{"type":"Feature","id":95,"geometry":{"type":"Point","coordinates":[139.71174900000005,35.663582000000076]},"properties":{"OBJECTID":95,"name":"スパイラル","lon":139.711749,"lat":35.663581999999998}},{"type":"Feature","id":96,"geometry":{"type":"Point","coordinates":[139.74282200000005,35.649254000000042]},"properties":{"OBJECTID":96,"name":"慶應義塾ミュージアム・コモンズ","lon":139.74282199999999,"lat":35.649253999999999}},{"type":"Feature","id":97,"geometry":{"type":"Point","coordinates":[139.71514300000001,35.674892000000057]},"properties":{"OBJECTID":97,"name":"日本オリンピックミュージアム","lon":139.71514300000001,"lat":35.674892}},{"type":"Feature","id":98,"geometry":{"type":"Point","coordinates":[139.77356900000007,35.680707000000041]},"properties":{"OBJECTID":98,"name":"高島屋史料館TOKYO","lon":139.77356900000001,"lat":35.680706999999998}},{"type":"Feature","id":99,"geometry":{"type":"Point","coordinates":[139.7021830000001,35.691782000000046]},"properties":{"OBJECTID":99,"name":"中村屋サロン美術館","lon":139.70218299999999,"lat":35.691782000000003}},{"type":"Feature","id":100,"geometry":{"type":"Point","coordinates":[139.831773,35.64576500000004]},"properties":{"OBJECTID":100,"name":"木材・合板博物館","lon":139.831773,"lat":35.645764999999997}},{"type":"Feature","id":101,"geometry":{"type":"Point","coordinates":[139.71554400000002,35.661308000000076]},"properties":{"OBJECTID":101,"name":"岡本太郎記念館","lon":139.71554399999999,"lat":35.661307999999998}},{"type":"Feature","id":102,"geometry":{"type":"Point","coordinates":[139.77194600000007,35.680821000000037]},"properties":{"OBJECTID":102,"name":"UNPEL GALLERY","lon":139.77194600000001,"lat":35.680821000000002}},{"type":"Feature","id":103,"geometry":{"type":"Point","coordinates":[139.70635800000002,35.665888000000052]},"properties":{"OBJECTID":103,"name":"GYRE GALLERY","lon":139.70635799999999,"lat":35.665888000000002}},{"type":"Feature","id":104,"geometry":{"type":"Point","coordinates":[139.76645800000006,35.67303000000004]},"properties":{"OBJECTID":104,"name":"シャネル・ネクサス・ホール","lon":139.766458,"lat":35.673029999999997}},{"type":"Feature","id":105,"geometry":{"type":"Point","coordinates":[139.71725900000001,35.623162000000036]},"properties":{"OBJECTID":105,"name":"TOC五反田メッセ","lon":139.71725900000001,"lat":35.623162000000001}},{"type":"Feature","id":106,"geometry":{"type":"Point","coordinates":[139.753873,35.690225000000055]},"properties":{"OBJECTID":106,"name":"国立公文書館","lon":139.753873,"lat":35.690224999999998}},{"type":"Feature","id":107,"geometry":{"type":"Point","coordinates":[139.74377200000004,35.649451000000056]},"properties":{"OBJECTID":107,"name":"福澤諭吉記念 慶應義塾史展示館","lon":139.74377200000001,"lat":35.649450999999999}},{"type":"Feature","id":108,"geometry":{"type":"Point","coordinates":[139.69963700000005,35.662555000000054]},"properties":{"OBJECTID":108,"name":"東京都渋谷公園通りギャラリー","lon":139.699637,"lat":35.662554999999998}},{"type":"Feature","id":109,"geometry":{"type":"Point","coordinates":[139.78230200000007,35.665803000000039]},"properties":{"OBJECTID":109,"name":"Temporary Contemporary","lon":139.78230199999999,"lat":35.665802999999997}},{"type":"Feature","id":110,"geometry":{"type":"Point","coordinates":[139.74821600000007,35.657420000000059]},"properties":{"OBJECTID":110,"name":"増上寺宝物展示室","lon":139.74821600000001,"lat":35.657420000000002}},{"type":"Feature","id":111,"geometry":{"type":"Point","coordinates":[139.77083200000004,35.704213000000038]},"properties":{"OBJECTID":111,"name":"アキバタマビ21","lon":139.77083200000001,"lat":35.704213000000003}},{"type":"Feature","id":112,"geometry":{"type":"Point","coordinates":[139.72288200000003,35.653242000000034]},"properties":{"OBJECTID":112,"name":"EMON PHOTO GALLERY","lon":139.722882,"lat":35.653241999999999}},{"type":"Feature","id":113,"geometry":{"type":"Point","coordinates":[139.7756270000001,35.682532000000037]},"properties":{"OBJECTID":113,"name":"凧の博物館","lon":139.77562699999999,"lat":35.682532000000002}},{"type":"Feature","id":114,"geometry":{"type":"Point","coordinates":[139.72912400000007,35.620938000000081]},"properties":{"OBJECTID":114,"name":"O美術館","lon":139.72912400000001,"lat":35.620938000000002}},{"type":"Feature","id":115,"geometry":{"type":"Point","coordinates":[139.76218300000005,35.676616000000081]},"properties":{"OBJECTID":115,"name":"GOOD DESIGN Marunouchi","lon":139.76218299999999,"lat":35.676616000000003}},{"type":"Feature","id":116,"geometry":{"type":"Point","coordinates":[139.80055300000004,35.681091000000038]},"properties":{"OBJECTID":116,"name":"江東区深川江戸資料館","lon":139.80055300000001,"lat":35.681091000000002}},{"type":"Feature","id":117,"geometry":{"type":"Point","coordinates":[139.72650600000009,35.703189000000066]},"properties":{"OBJECTID":117,"name":"草間彌生美術館","lon":139.726506,"lat":35.703189000000002}},{"type":"Feature","id":118,"geometry":{"type":"Point","coordinates":[139.70156800000007,35.698759000000052]},"properties":{"OBJECTID":118,"name":"WHITEHOUSE","lon":139.70156800000001,"lat":35.698759000000003}},{"type":"Feature","id":119,"geometry":{"type":"Point","coordinates":[139.77471200000002,35.685230000000047]},"properties":{"OBJECTID":119,"name":"日本橋アナーキー文化センター","lon":139.77471199999999,"lat":35.685229999999997}},{"type":"Feature","id":120,"geometry":{"type":"Point","coordinates":[139.70356200000003,35.68302900000009]},"properties":{"OBJECTID":120,"name":"Gallery10[TOH]","lon":139.70356200000001,"lat":35.683028999999998}},{"type":"Feature","id":121,"geometry":{"type":"Point","coordinates":[139.70554300000003,35.669094000000086]},"properties":{"OBJECTID":121,"name":"ラフォーレミュージアム原宿","lon":139.70554300000001,"lat":35.669094000000001}},{"type":"Feature","id":122,"geometry":{"type":"Point","coordinates":[139.706547,35.666967000000056]},"properties":{"OBJECTID":122,"name":"The Mass","lon":139.706547,"lat":35.666967}},{"type":"Feature","id":123,"geometry":{"type":"Point","coordinates":[139.73384800000008,35.662314000000038]},"properties":{"OBJECTID":123,"name":"ANB Tokyo","lon":139.73384799999999,"lat":35.662314000000002}},{"type":"Feature","id":124,"geometry":{"type":"Point","coordinates":[139.6989890000001,35.662025000000085]},"properties":{"OBJECTID":124,"name":"PARCO MUSEUM TOKYO","lon":139.69898900000001,"lat":35.662025}},{"type":"Feature","id":125,"geometry":{"type":"Point","coordinates":[139.753423,35.660765000000083]},"properties":{"OBJECTID":125,"name":"東京美術倶楽部","lon":139.753423,"lat":35.660764999999998}}]}