{"type":"FeatureCollection","features":[{"type":"Feature","id":1,"geometry":{"type":"Point","coordinates":[139.77272000000005,35.699265000000082]},"properties":{"OBJECTID":1,"name":"秋葉原","lon":139.77271999999999,"lat":35.699264999999997}},{"type":"Feature","id":2,"geometry":{"type":"Point","coordinates":[139.76544200000001,35.681553000000065]},"properties":{"OBJECTID":2,"name":"東京駅","lon":139.76544200000001,"lat":35.681553000000001}},{"type":"Feature","id":3,"geometry":{"type":"Point","coordinates":[139.74713100000008,35.691498000000081]},"properties":{"OBJECTID":3,"name":"千鳥ヶ淵","lon":139.747131,"lat":35.691498000000003}},{"type":"Feature","id":4,"geometry":{"type":"Point","coordinates":[139.74385100000006,35.694138000000066]},"properties":{"OBJECTID":4,"name":"靖国神社","lon":139.74385100000001,"lat":35.694138000000002}},{"type":"Feature","id":5,"geometry":{"type":"Point","coordinates":[139.757431,35.686810000000037]},"properties":{"OBJECTID":5,"name":"皇居東御苑（旧江戸城本丸跡）","lon":139.757431,"lat":35.686810000000001}},{"type":"Feature","id":6,"geometry":{"type":"Point","coordinates":[139.767471,35.701923000000079]},"properties":{"OBJECTID":6,"name":"神田明神","lon":139.767471,"lat":35.701923000000001}},{"type":"Feature","id":7,"geometry":{"type":"Point","coordinates":[139.73959400000001,35.674698000000035]},"properties":{"OBJECTID":7,"name":"日枝神社","lon":139.73959400000001,"lat":35.674697999999999}},{"type":"Feature","id":8,"geometry":{"type":"Point","coordinates":[139.75079300000004,35.684055000000058]},"properties":{"OBJECTID":8,"name":"皇居","lon":139.75079299999999,"lat":35.684055000000001}},{"type":"Feature","id":9,"geometry":{"type":"Point","coordinates":[139.76333600000009,35.678528000000085]},"properties":{"OBJECTID":9,"name":"三菱一号館美術館","lon":139.76333600000001,"lat":35.678528}},{"type":"Feature","id":10,"geometry":{"type":"Point","coordinates":[139.75877400000002,35.695801000000074]},"properties":{"OBJECTID":10,"name":"神田神保町古書店街","lon":139.75877399999999,"lat":35.695801000000003}},{"type":"Feature","id":11,"geometry":{"type":"Point","coordinates":[139.76434300000005,35.677090000000078]},"properties":{"OBJECTID":11,"name":"東京国際フォーラム","lon":139.764343,"lat":35.67709}},{"type":"Feature","id":12,"geometry":{"type":"Point","coordinates":[139.75868200000002,35.676971000000037]},"properties":{"OBJECTID":12,"name":"皇居外苑","lon":139.75868199999999,"lat":35.676971000000002}},{"type":"Feature","id":13,"geometry":{"type":"Point","coordinates":[139.74670400000002,35.699806000000081]},"properties":{"OBJECTID":13,"name":"東京大神宮","lon":139.74670399999999,"lat":35.699806000000002}},{"type":"Feature","id":14,"geometry":{"type":"Point","coordinates":[139.75051900000005,35.691792000000078]},"properties":{"OBJECTID":14,"name":"北の丸公園","lon":139.750519,"lat":35.691792}},{"type":"Feature","id":15,"geometry":{"type":"Point","coordinates":[139.74501000000009,35.675797000000046]},"properties":{"OBJECTID":15,"name":"国会議事堂","lon":139.74501000000001,"lat":35.675797000000003}},{"type":"Feature","id":16,"geometry":{"type":"Point","coordinates":[139.7494660000001,35.693161000000089]},"properties":{"OBJECTID":16,"name":"日本武道館","lon":139.74946600000001,"lat":35.693161000000003}},{"type":"Feature","id":17,"geometry":{"type":"Point","coordinates":[139.754684,35.679928000000075]},"properties":{"OBJECTID":17,"name":"二重橋","lon":139.754684,"lat":35.679927999999997}},{"type":"Feature","id":18,"geometry":{"type":"Point","coordinates":[139.76554900000008,35.698025000000086]},"properties":{"OBJECTID":18,"name":"東京復活大聖堂 (ニコライ堂)","lon":139.76554899999999,"lat":35.698025000000001}},{"type":"Feature","id":19,"geometry":{"type":"Point","coordinates":[139.762878,35.680092000000059]},"properties":{"OBJECTID":19,"name":"丸の内仲通り","lon":139.762878,"lat":35.680092000000002}},{"type":"Feature","id":20,"geometry":{"type":"Point","coordinates":[139.74844400000006,35.685314000000062]},"properties":{"OBJECTID":20,"name":"皇居ランニングコース","lon":139.74844400000001,"lat":35.685313999999998}},{"type":"Feature","id":21,"geometry":{"type":"Point","coordinates":[139.7631990000001,35.674519000000089]},"properties":{"OBJECTID":21,"name":"有楽町歓楽街","lon":139.76319899999999,"lat":35.674518999999997}},{"type":"Feature","id":22,"geometry":{"type":"Point","coordinates":[139.76547200000005,35.681561000000045]},"properties":{"OBJECTID":22,"name":"東京駅丸の内駅前広場","lon":139.76547199999999,"lat":35.681561000000002}},{"type":"Feature","id":23,"geometry":{"type":"Point","coordinates":[139.75747699999999,35.699467000000084]},"properties":{"OBJECTID":23,"name":"カトリック神田教会","lon":139.75747699999999,"lat":35.699466999999999}},{"type":"Feature","id":24,"geometry":{"type":"Point","coordinates":[139.76721200000009,35.68007300000005]},"properties":{"OBJECTID":24,"name":"東京キャラクターストリート","lon":139.767212,"lat":35.680073}},{"type":"Feature","id":25,"geometry":{"type":"Point","coordinates":[139.73103300000002,35.685001000000057]},"properties":{"OBJECTID":25,"name":"聖イグナチオ教会","lon":139.731033,"lat":35.685001}},{"type":"Feature","id":26,"geometry":{"type":"Point","coordinates":[139.75334200000009,35.677917000000036]},"properties":{"OBJECTID":26,"name":"外桜田門","lon":139.753342,"lat":35.677917000000001}},{"type":"Feature","id":27,"geometry":{"type":"Point","coordinates":[139.76251200000002,35.687286000000086]},"properties":{"OBJECTID":27,"name":"平将門の首塚","lon":139.76251199999999,"lat":35.687286}},{"type":"Feature","id":28,"geometry":{"type":"Point","coordinates":[139.7466280000001,35.690060000000074]},"properties":{"OBJECTID":28,"name":"千鳥ケ淵戦没者墓苑","lon":139.74662799999999,"lat":35.690060000000003}},{"type":"Feature","id":29,"geometry":{"type":"Point","coordinates":[139.73747300000002,35.679508000000055]},"properties":{"OBJECTID":29,"name":"東京ガーデンテラス紀尾井町","lon":139.73747299999999,"lat":35.679507999999998}},{"type":"Feature","id":30,"geometry":{"type":"Point","coordinates":[139.76437400000009,35.674988000000042]},"properties":{"OBJECTID":30,"name":"おおいたアンテナショップ温泉座","lon":139.764374,"lat":35.674987999999999}},{"type":"Feature","id":31,"geometry":{"type":"Point","coordinates":[139.75840800000003,35.677967000000081]},"properties":{"OBJECTID":31,"name":"楠木正成像","lon":139.758408,"lat":35.677967000000002}},{"type":"Feature","id":32,"geometry":{"type":"Point","coordinates":[139.75993300000005,35.673126000000082]},"properties":{"OBJECTID":32,"name":"日比谷シャンテ","lon":139.75993299999999,"lat":35.673126000000003}},{"type":"Feature","id":33,"geometry":{"type":"Point","coordinates":[139.76181000000008,35.679035000000056]},"properties":{"OBJECTID":33,"name":"明治生命館","lon":139.76181,"lat":35.679034999999999}},{"type":"Feature","id":34,"geometry":{"type":"Point","coordinates":[139.75343300000009,35.67639900000006]},"properties":{"OBJECTID":34,"name":"法務省旧本館","lon":139.753433,"lat":35.676399000000004}},{"type":"Feature","id":35,"geometry":{"type":"Point","coordinates":[139.76568600000007,35.699890000000039]},"properties":{"OBJECTID":35,"name":"聖橋","lon":139.76568599999999,"lat":35.699890000000003}},{"type":"Feature","id":36,"geometry":{"type":"Point","coordinates":[139.76269500000001,35.673615000000041]},"properties":{"OBJECTID":36,"name":"有楽町マリオン","lon":139.76269500000001,"lat":35.673614999999998}},{"type":"Feature","id":37,"geometry":{"type":"Point","coordinates":[139.76025400000003,35.686085000000048]},"properties":{"OBJECTID":37,"name":"皇居大手門","lon":139.760254,"lat":35.686084999999999}},{"type":"Feature","id":38,"geometry":{"type":"Point","coordinates":[139.75552400000004,35.677868000000046]},"properties":{"OBJECTID":38,"name":"千鳥ヶ淵さんぽみち","lon":139.75552400000001,"lat":35.677867999999997}},{"type":"Feature","id":39,"geometry":{"type":"Point","coordinates":[139.73088100000007,35.685089000000062]},"properties":{"OBJECTID":39,"name":"上智大学","lon":139.73088100000001,"lat":35.685088999999998}},{"type":"Feature","id":40,"geometry":{"type":"Point","coordinates":[139.76133700000003,35.677677000000074]},"properties":{"OBJECTID":40,"name":"東京會舘","lon":139.761337,"lat":35.677677000000003}},{"type":"Feature","id":41,"geometry":{"type":"Point","coordinates":[139.762024,35.682228000000066]},"properties":{"OBJECTID":41,"name":"行幸通り","lon":139.762024,"lat":35.682228000000002}},{"type":"Feature","id":42,"geometry":{"type":"Point","coordinates":[139.75877400000002,35.693512000000055]},"properties":{"OBJECTID":42,"name":"学士会館","lon":139.75877399999999,"lat":35.693511999999998}},{"type":"Feature","id":43,"geometry":{"type":"Point","coordinates":[139.75210600000003,35.688858000000039]},"properties":{"OBJECTID":43,"name":"乾門","lon":139.752106,"lat":35.688858000000003}},{"type":"Feature","id":44,"geometry":{"type":"Point","coordinates":[139.74746700000003,35.677601000000038]},"properties":{"OBJECTID":44,"name":"国会前庭 北庭","lon":139.747467,"lat":35.677601000000003}},{"type":"Feature","id":45,"geometry":{"type":"Point","coordinates":[139.77351400000009,35.696751000000063]},"properties":{"OBJECTID":45,"name":"柳森神社","lon":139.77351400000001,"lat":35.696750999999999}},{"type":"Feature","id":46,"geometry":{"type":"Point","coordinates":[139.75271600000008,35.692841000000044]},"properties":{"OBJECTID":46,"name":"清水門","lon":139.75271599999999,"lat":35.692841000000001}},{"type":"Feature","id":47,"geometry":{"type":"Point","coordinates":[139.74931300000003,35.69407700000005]},"properties":{"OBJECTID":47,"name":"田安門","lon":139.749313,"lat":35.694077}},{"type":"Feature","id":48,"geometry":{"type":"Point","coordinates":[139.744507,35.688633000000038]},"properties":{"OBJECTID":48,"name":"如水会館","lon":139.744507,"lat":35.688633000000003}},{"type":"Feature","id":49,"geometry":{"type":"Point","coordinates":[139.75016800000003,35.696152000000041]},"properties":{"OBJECTID":49,"name":"築土神社","lon":139.750168,"lat":35.696151999999998}},{"type":"Feature","id":50,"geometry":{"type":"Point","coordinates":[139.7373960000001,35.679287000000045]},"properties":{"OBJECTID":50,"name":"旧北白川宮邸洋館","lon":139.73739599999999,"lat":35.679287000000002}},{"type":"Feature","id":51,"geometry":{"type":"Point","coordinates":[139.76733400000001,35.681168000000071]},"properties":{"OBJECTID":51,"name":"銀の鈴","lon":139.76733400000001,"lat":35.681168}},{"type":"Feature","id":52,"geometry":{"type":"Point","coordinates":[139.76030000000003,35.673702000000048]},"properties":{"OBJECTID":52,"name":"ゴジラ像","lon":139.7603,"lat":35.673701999999999}},{"type":"Feature","id":53,"geometry":{"type":"Point","coordinates":[139.759186,35.673584000000062]},"properties":{"OBJECTID":53,"name":"パークビューガーデン","lon":139.759186,"lat":35.673583999999998}},{"type":"Feature","id":54,"geometry":{"type":"Point","coordinates":[139.76194800000007,35.683353000000068]},"properties":{"OBJECTID":54,"name":"和田倉門","lon":139.76194799999999,"lat":35.683352999999997}},{"type":"Feature","id":55,"geometry":{"type":"Point","coordinates":[139.74533100000008,35.693386000000089]},"properties":{"OBJECTID":55,"name":"高燈篭","lon":139.74533099999999,"lat":35.693385999999997}},{"type":"Feature","id":56,"geometry":{"type":"Point","coordinates":[139.75749200000007,35.691826000000049]},"properties":{"OBJECTID":56,"name":"パレスサイドビルディング","lon":139.75749200000001,"lat":35.691825999999999}},{"type":"Feature","id":57,"geometry":{"type":"Point","coordinates":[139.73967000000005,35.685524000000044]},"properties":{"OBJECTID":57,"name":"麹町小学校","lon":139.73966999999999,"lat":35.685524000000001}},{"type":"Feature","id":58,"geometry":{"type":"Point","coordinates":[139.76469400000008,35.683392000000083]},"properties":{"OBJECTID":58,"name":"日本工業倶楽部会館","lon":139.76469399999999,"lat":35.683391999999998}},{"type":"Feature","id":59,"geometry":{"type":"Point","coordinates":[139.77146900000002,35.69661700000006]},"properties":{"OBJECTID":59,"name":"秋葉原 自販機コーナー","lon":139.771469,"lat":35.696617000000003}},{"type":"Feature","id":60,"geometry":{"type":"Point","coordinates":[139.7522580000001,35.676987000000054]},"properties":{"OBJECTID":60,"name":"警視庁本部","lon":139.75225800000001,"lat":35.676986999999997}},{"type":"Feature","id":61,"geometry":{"type":"Point","coordinates":[139.74359100000004,35.680496000000062]},"properties":{"OBJECTID":61,"name":"最高裁判所","lon":139.74359100000001,"lat":35.680495999999998}},{"type":"Feature","id":62,"geometry":{"type":"Point","coordinates":[139.76147500000002,35.677727000000061]},"properties":{"OBJECTID":62,"name":"二重橋スクエア","lon":139.76147499999999,"lat":35.677726999999997}},{"type":"Feature","id":63,"geometry":{"type":"Point","coordinates":[139.75456200000008,35.701653000000078]},"properties":{"OBJECTID":63,"name":"三崎稲荷神社","lon":139.75456199999999,"lat":35.701653}},{"type":"Feature","id":64,"geometry":{"type":"Point","coordinates":[139.74644499999999,35.692135000000064]},"properties":{"OBJECTID":64,"name":"イタリア文化会館","lon":139.74644499999999,"lat":35.692135}},{"type":"Feature","id":65,"geometry":{"type":"Point","coordinates":[139.74107400000003,35.682468000000085]},"properties":{"OBJECTID":65,"name":"平河天満宮","lon":139.741074,"lat":35.682468}},{"type":"Feature","id":66,"geometry":{"type":"Point","coordinates":[139.76939400000003,35.684875000000034]},"properties":{"OBJECTID":66,"name":"大手町牧場","lon":139.76939400000001,"lat":35.684874999999998}},{"type":"Feature","id":67,"geometry":{"type":"Point","coordinates":[139.7448730000001,35.67589200000009]},"properties":{"OBJECTID":67,"name":"参議院","lon":139.74487300000001,"lat":35.675891999999997}},{"type":"Feature","id":68,"geometry":{"type":"Point","coordinates":[139.76309200000003,35.696434000000067]},"properties":{"OBJECTID":68,"name":"太田姫稲荷神社","lon":139.763092,"lat":35.696434000000004}},{"type":"Feature","id":69,"geometry":{"type":"Point","coordinates":[139.75848400000007,35.695313000000056]},"properties":{"OBJECTID":69,"name":"神田すずらん通り商店街","lon":139.75848400000001,"lat":35.695312999999999}},{"type":"Feature","id":70,"geometry":{"type":"Point","coordinates":[139.74638400000003,35.694813000000067]},"properties":{"OBJECTID":70,"name":"大村益次郎 銅像","lon":139.74638400000001,"lat":35.694813000000003}},{"type":"Feature","id":71,"geometry":{"type":"Point","coordinates":[139.77027900000007,35.697189000000037]},"properties":{"OBJECTID":71,"name":"旧万世橋駅","lon":139.77027899999999,"lat":35.697189000000002}},{"type":"Feature","id":72,"geometry":{"type":"Point","coordinates":[139.7486110000001,35.695961000000068]},"properties":{"OBJECTID":72,"name":"豪北方面戦歿者慰霊碑","lon":139.74861100000001,"lat":35.695960999999997}},{"type":"Feature","id":73,"geometry":{"type":"Point","coordinates":[139.7539670000001,35.688839000000087]},"properties":{"OBJECTID":73,"name":"北桔橋門","lon":139.75396699999999,"lat":35.688839000000002}},{"type":"Feature","id":74,"geometry":{"type":"Point","coordinates":[139.74899300000004,35.695011000000079]},"properties":{"OBJECTID":74,"name":"九段坂","lon":139.74899300000001,"lat":35.695011000000001}},{"type":"Feature","id":75,"geometry":{"type":"Point","coordinates":[139.78002900000001,35.696495000000084]},"properties":{"OBJECTID":75,"name":"美倉橋公衆トイレ","lon":139.78002900000001,"lat":35.696494999999999}},{"type":"Feature","id":76,"geometry":{"type":"Point","coordinates":[139.73553500000003,35.680496000000062]},"properties":{"OBJECTID":76,"name":"紀尾井坂","lon":139.735535,"lat":35.680495999999998}},{"type":"Feature","id":77,"geometry":{"type":"Point","coordinates":[139.73967000000005,35.675148000000036]},"properties":{"OBJECTID":77,"name":"山王稲荷神社","lon":139.73966999999999,"lat":35.675148}},{"type":"Feature","id":78,"geometry":{"type":"Point","coordinates":[139.738068,35.678806000000066]},"properties":{"OBJECTID":78,"name":"赤坂見附跡","lon":139.738068,"lat":35.678806000000002}},{"type":"Feature","id":79,"geometry":{"type":"Point","coordinates":[139.73640399999999,35.678566000000046]},"properties":{"OBJECTID":79,"name":"弁慶橋","lon":139.73640399999999,"lat":35.678565999999996}},{"type":"Feature","id":80,"geometry":{"type":"Point","coordinates":[139.75277700000004,35.675171000000034]},"properties":{"OBJECTID":80,"name":"東京地方裁判所","lon":139.75277700000001,"lat":35.675170999999999}},{"type":"Feature","id":81,"geometry":{"type":"Point","coordinates":[139.74548300000004,35.683826000000067]},"properties":{"OBJECTID":81,"name":"半蔵門","lon":139.74548300000001,"lat":35.683826000000003}},{"type":"Feature","id":82,"geometry":{"type":"Point","coordinates":[139.7651820000001,35.682674000000077]},"properties":{"OBJECTID":82,"name":"井上勝の銅像","lon":139.76518200000001,"lat":35.682673999999999}},{"type":"Feature","id":83,"geometry":{"type":"Point","coordinates":[139.76762400000007,35.702045000000055]},"properties":{"OBJECTID":83,"name":"神田の家 （井政-IMASA-）","lon":139.76762400000001,"lat":35.702044999999998}},{"type":"Feature","id":84,"geometry":{"type":"Point","coordinates":[139.77046200000007,35.685520000000054]},"properties":{"OBJECTID":84,"name":"渋沢栄一像","lon":139.77046200000001,"lat":35.685519999999997}},{"type":"Feature","id":85,"geometry":{"type":"Point","coordinates":[139.7787780000001,35.699181000000067]},"properties":{"OBJECTID":85,"name":"ちよだパークサイドプラザ","lon":139.77877799999999,"lat":35.699181000000003}},{"type":"Feature","id":86,"geometry":{"type":"Point","coordinates":[139.75834700000007,35.683926000000042]},"properties":{"OBJECTID":86,"name":"桔梗門","lon":139.75834699999999,"lat":35.683926}},{"type":"Feature","id":87,"geometry":{"type":"Point","coordinates":[139.74324000000001,35.695320000000038]},"properties":{"OBJECTID":87,"name":"パール博士顕彰碑","lon":139.74323999999999,"lat":35.695320000000002}},{"type":"Feature","id":88,"geometry":{"type":"Point","coordinates":[139.74711600000001,35.695110000000057]},"properties":{"OBJECTID":88,"name":"靖国神社 慰霊の泉","lon":139.74711600000001,"lat":35.69511}},{"type":"Feature","id":89,"geometry":{"type":"Point","coordinates":[139.74798600000008,35.671848000000068]},"properties":{"OBJECTID":89,"name":"霞テラス","lon":139.747986,"lat":35.671847999999997}},{"type":"Feature","id":90,"geometry":{"type":"Point","coordinates":[139.7448730000001,35.67589200000009]},"properties":{"OBJECTID":90,"name":"衆議院","lon":139.74487300000001,"lat":35.675891999999997}},{"type":"Feature","id":91,"geometry":{"type":"Point","coordinates":[139.76789900000006,35.702038000000073]},"properties":{"OBJECTID":91,"name":"獅子山","lon":139.767899,"lat":35.702038000000002}},{"type":"Feature","id":92,"geometry":{"type":"Point","coordinates":[139.74813800000004,35.694580000000087]},"properties":{"OBJECTID":92,"name":"大山巌元帥の像","lon":139.74813800000001,"lat":35.694580000000002}},{"type":"Feature","id":93,"geometry":{"type":"Point","coordinates":[139.74736000000007,35.695354000000066]},"properties":{"OBJECTID":93,"name":"常陸丸殉難記念碑","lon":139.74735999999999,"lat":35.695354000000002}},{"type":"Feature","id":94,"geometry":{"type":"Point","coordinates":[139.76342800000009,35.674572000000069]},"properties":{"OBJECTID":94,"name":"南町奉行所跡","lon":139.763428,"lat":35.674571999999998}},{"type":"Feature","id":95,"geometry":{"type":"Point","coordinates":[139.750092,35.681564000000037]},"properties":{"OBJECTID":95,"name":"Hibiya Magic Time Illumination 2022","lon":139.750092,"lat":35.681564000000002}},{"type":"Feature","id":96,"geometry":{"type":"Point","coordinates":[139.74661300000002,35.678917000000069]},"properties":{"OBJECTID":96,"name":"日本水準原点標庫","lon":139.746613,"lat":35.678916999999998}},{"type":"Feature","id":97,"geometry":{"type":"Point","coordinates":[139.77078200000005,35.698750000000075]},"properties":{"OBJECTID":97,"name":"東京ラジオデパート","lon":139.770782,"lat":35.698749999999997}},{"type":"Feature","id":98,"geometry":{"type":"Point","coordinates":[139.75569200000007,35.68280400000009]},"properties":{"OBJECTID":98,"name":"坂下門","lon":139.75569200000001,"lat":35.682803999999997}},{"type":"Feature","id":99,"geometry":{"type":"Point","coordinates":[139.74375900000007,35.699890000000039]},"properties":{"OBJECTID":99,"name":"牛込見附跡","lon":139.74375900000001,"lat":35.699890000000003}},{"type":"Feature","id":100,"geometry":{"type":"Point","coordinates":[139.76763900000003,35.702198000000067]},"properties":{"OBJECTID":100,"name":"江戸神社","lon":139.767639,"lat":35.702198000000003}},{"type":"Feature","id":101,"geometry":{"type":"Point","coordinates":[139.75471500000003,35.686035000000061]},"properties":{"OBJECTID":101,"name":"富士見多聞","lon":139.754715,"lat":35.686034999999997}},{"type":"Feature","id":102,"geometry":{"type":"Point","coordinates":[139.7521210000001,35.692043000000069]},"properties":{"OBJECTID":102,"name":"吉田茂像","lon":139.75212099999999,"lat":35.692042999999998}},{"type":"Feature","id":103,"geometry":{"type":"Point","coordinates":[139.77203400000008,35.701294000000075]},"properties":{"OBJECTID":103,"name":"花房稲荷神社","lon":139.77203399999999,"lat":35.701293999999997}},{"type":"Feature","id":104,"geometry":{"type":"Point","coordinates":[139.73405500000001,35.680923000000064]},"properties":{"OBJECTID":104,"name":"開業25周年記念 ガス灯","lon":139.73405500000001,"lat":35.680923}},{"type":"Feature","id":105,"geometry":{"type":"Point","coordinates":[139.77066000000002,35.685326000000089]},"properties":{"OBJECTID":105,"name":"常盤橋","lon":139.77065999999999,"lat":35.685326000000003}},{"type":"Feature","id":106,"geometry":{"type":"Point","coordinates":[139.76284800000008,35.686909000000071]},"properties":{"OBJECTID":106,"name":"よいまち","lon":139.76284799999999,"lat":35.686909}},{"type":"Feature","id":107,"geometry":{"type":"Point","coordinates":[139.756393,35.690670000000068]},"properties":{"OBJECTID":107,"name":"竹橋","lon":139.756393,"lat":35.690669999999997}},{"type":"Feature","id":108,"geometry":{"type":"Point","coordinates":[139.76037600000006,35.672222000000033]},"properties":{"OBJECTID":108,"name":"有楽町産直横丁","lon":139.76037600000001,"lat":35.672221999999998}},{"type":"Feature","id":109,"geometry":{"type":"Point","coordinates":[139.73112500000002,35.686241000000052]},"properties":{"OBJECTID":109,"name":"江戸城外堀四谷見附跡","lon":139.73112499999999,"lat":35.686241000000003}},{"type":"Feature","id":110,"geometry":{"type":"Point","coordinates":[139.76782200000002,35.690506000000084]},"properties":{"OBJECTID":110,"name":"神田出世不動尊","lon":139.767822,"lat":35.690505999999999}},{"type":"Feature","id":111,"geometry":{"type":"Point","coordinates":[139.74929800000007,35.693954000000076]},"properties":{"OBJECTID":111,"name":"田安門 櫓","lon":139.74929800000001,"lat":35.693953999999998}},{"type":"Feature","id":112,"geometry":{"type":"Point","coordinates":[139.76399200000003,35.681248000000039]},"properties":{"OBJECTID":112,"name":"デ・リーフデ号像","lon":139.763992,"lat":35.681247999999997}},{"type":"Feature","id":113,"geometry":{"type":"Point","coordinates":[139.76789900000006,35.702030000000036]},"properties":{"OBJECTID":113,"name":"さざれ石","lon":139.767899,"lat":35.702030000000001}},{"type":"Feature","id":114,"geometry":{"type":"Point","coordinates":[139.76890600000002,35.698692000000051]},"properties":{"OBJECTID":114,"name":"松住町架道橋","lon":139.76890599999999,"lat":35.698692000000001}},{"type":"Feature","id":115,"geometry":{"type":"Point","coordinates":[139.766479,35.680405000000064]},"properties":{"OBJECTID":115,"name":"丸の内ストリートギャラリー","lon":139.766479,"lat":35.680405}},{"type":"Feature","id":116,"geometry":{"type":"Point","coordinates":[139.74586500000009,35.674137000000087]},"properties":{"OBJECTID":116,"name":"茱萸坂","lon":139.74586500000001,"lat":35.674137000000002}},{"type":"Feature","id":117,"geometry":{"type":"Point","coordinates":[139.76214600000003,35.674450000000036]},"properties":{"OBJECTID":117,"name":"有楽稲荷神社","lon":139.762146,"lat":35.67445}},{"type":"Feature","id":118,"geometry":{"type":"Point","coordinates":[139.77250700000002,35.700523000000089]},"properties":{"OBJECTID":118,"name":"秋葉原 UDX","lon":139.77250699999999,"lat":35.700522999999997}},{"type":"Feature","id":119,"geometry":{"type":"Point","coordinates":[139.73628200000007,35.679192000000057]},"properties":{"OBJECTID":119,"name":"紀伊徳川家和歌山藩屋敷跡","lon":139.73628199999999,"lat":35.679192}},{"type":"Feature","id":120,"geometry":{"type":"Point","coordinates":[139.76347400000009,35.681950000000086]},"properties":{"OBJECTID":120,"name":"行幸地下ギャラリー","lon":139.763474,"lat":35.681950000000001}},{"type":"Feature","id":121,"geometry":{"type":"Point","coordinates":[139.76210000000003,35.677650000000085]},"properties":{"OBJECTID":121,"name":"くまモンのベンチアート","lon":139.7621,"lat":35.67765}},{"type":"Feature","id":122,"geometry":{"type":"Point","coordinates":[139.76570100000004,35.688618000000076]},"properties":{"OBJECTID":122,"name":"大手町川端緑道","lon":139.76570100000001,"lat":35.688617999999998}},{"type":"Feature","id":123,"geometry":{"type":"Point","coordinates":[139.77043200000003,35.702381000000059]},"properties":{"OBJECTID":123,"name":"雲雀亭","lon":139.770432,"lat":35.702381000000003}},{"type":"Feature","id":124,"geometry":{"type":"Point","coordinates":[139.76025400000003,35.689468000000033]},"properties":{"OBJECTID":124,"name":"和気清麻呂像","lon":139.760254,"lat":35.689467999999998}},{"type":"Feature","id":125,"geometry":{"type":"Point","coordinates":[139.76579300000003,35.680637000000047]},"properties":{"OBJECTID":125,"name":"原首相遭難現場","lon":139.765793,"lat":35.680636999999997}},{"type":"Feature","id":126,"geometry":{"type":"Point","coordinates":[139.77050800000006,35.699184000000059]},"properties":{"OBJECTID":126,"name":"コトブキヤ 秋葉原館","lon":139.77050800000001,"lat":35.699184000000002}},{"type":"Feature","id":127,"geometry":{"type":"Point","coordinates":[139.76084900000001,35.697823000000085]},"properties":{"OBJECTID":127,"name":"錦華坂","lon":139.76084900000001,"lat":35.697823}},{"type":"Feature","id":128,"geometry":{"type":"Point","coordinates":[139.74153100000001,35.687412000000052]},"properties":{"OBJECTID":128,"name":"滝廉太郎居住地跡の碑","lon":139.74153100000001,"lat":35.687412000000002}},{"type":"Feature","id":129,"geometry":{"type":"Point","coordinates":[139.75892600000009,35.672127000000046]},"properties":{"OBJECTID":129,"name":"東光庵","lon":139.758926,"lat":35.672127000000003}},{"type":"Feature","id":130,"geometry":{"type":"Point","coordinates":[139.769409,35.691185000000075]},"properties":{"OBJECTID":130,"name":"佐竹稲荷神社","lon":139.769409,"lat":35.691184999999997}},{"type":"Feature","id":131,"geometry":{"type":"Point","coordinates":[139.75874300000009,35.693714000000057]},"properties":{"OBJECTID":131,"name":"日本野球発祥の地記念碑","lon":139.75874300000001,"lat":35.693714}},{"type":"Feature","id":132,"geometry":{"type":"Point","coordinates":[139.74664300000006,35.69477100000006]},"properties":{"OBJECTID":132,"name":"田中支隊忠魂碑","lon":139.74664300000001,"lat":35.694771000000003}},{"type":"Feature","id":133,"geometry":{"type":"Point","coordinates":[139.76962300000002,35.682533000000035]},"properties":{"OBJECTID":133,"name":"江戸城外堀跡石垣","lon":139.769623,"lat":35.682532999999999}},{"type":"Feature","id":134,"geometry":{"type":"Point","coordinates":[139.75878900000009,35.698669000000052]},"properties":{"OBJECTID":134,"name":"神田猿楽町町会詰所","lon":139.75878900000001,"lat":35.698669000000002}},{"type":"Feature","id":135,"geometry":{"type":"Point","coordinates":[139.768326,35.701412000000062]},"properties":{"OBJECTID":135,"name":"明神男坂","lon":139.768326,"lat":35.701411999999998}},{"type":"Feature","id":136,"geometry":{"type":"Point","coordinates":[139.74189800000011,35.683647000000065]},"properties":{"OBJECTID":136,"name":"麹町 太田姫稲荷神社","lon":139.74189799999999,"lat":35.683647000000001}},{"type":"Feature","id":137,"geometry":{"type":"Point","coordinates":[139.75981100000001,35.699718000000075]},"properties":{"OBJECTID":137,"name":"男坂の階段","lon":139.75981100000001,"lat":35.699717999999997}},{"type":"Feature","id":138,"geometry":{"type":"Point","coordinates":[139.76124600000003,35.674412000000075]},"properties":{"OBJECTID":138,"name":"有楽町電気ビル","lon":139.761246,"lat":35.674411999999997}},{"type":"Feature","id":139,"geometry":{"type":"Point","coordinates":[139.75624100000005,35.694374000000039]},"properties":{"OBJECTID":139,"name":"日本教育会館","lon":139.75624099999999,"lat":35.694374000000003}},{"type":"Feature","id":140,"geometry":{"type":"Point","coordinates":[139.73608400000001,35.684135000000083]},"properties":{"OBJECTID":140,"name":"豊受稲荷神社","lon":139.73608400000001,"lat":35.684134999999998}},{"type":"Feature","id":141,"geometry":{"type":"Point","coordinates":[139.769318,35.699566000000061]},"properties":{"OBJECTID":141,"name":"秋葉原神社","lon":139.769318,"lat":35.699565999999997}},{"type":"Feature","id":142,"geometry":{"type":"Point","coordinates":[139.7686920000001,35.691219000000046]},"properties":{"OBJECTID":142,"name":"神田駅西口商店街","lon":139.76869199999999,"lat":35.691218999999997}},{"type":"Feature","id":143,"geometry":{"type":"Point","coordinates":[139.756393,35.674503000000072]},"properties":{"OBJECTID":143,"name":"Replica of the Liberty Bell","lon":139.756393,"lat":35.674503000000001}},{"type":"Feature","id":144,"geometry":{"type":"Point","coordinates":[139.74813800000004,35.694580000000087]},"properties":{"OBJECTID":144,"name":"品川弥二郎像","lon":139.74813800000001,"lat":35.694580000000002}},{"type":"Feature","id":145,"geometry":{"type":"Point","coordinates":[139.74063100000001,35.693123000000071]},"properties":{"OBJECTID":145,"name":"一口坂 （いもあらいざか）","lon":139.74063100000001,"lat":35.693123}},{"type":"Feature","id":146,"geometry":{"type":"Point","coordinates":[139.75079300000004,35.69865800000008]},"properties":{"OBJECTID":146,"name":"マンガ展","lon":139.75079299999999,"lat":35.698658000000002}},{"type":"Feature","id":147,"geometry":{"type":"Point","coordinates":[139.7318570000001,35.681427000000042]},"properties":{"OBJECTID":147,"name":"喰違見附跡","lon":139.73185699999999,"lat":35.681426999999999}},{"type":"Feature","id":148,"geometry":{"type":"Point","coordinates":[139.76617400000009,35.699062000000083]},"properties":{"OBJECTID":148,"name":"岩崎彌之助邸跡","lon":139.76617400000001,"lat":35.699061999999998}},{"type":"Feature","id":149,"geometry":{"type":"Point","coordinates":[139.76619000000005,35.681728000000078]},"properties":{"OBJECTID":149,"name":"東京駅赤レンガ駅舎型ポスト","lon":139.76618999999999,"lat":35.681728}},{"type":"Feature","id":150,"geometry":{"type":"Point","coordinates":[139.74447600000008,35.699989000000073]},"properties":{"OBJECTID":150,"name":"旗本屋敷跡","lon":139.74447599999999,"lat":35.699989000000002}},{"type":"Feature","id":151,"geometry":{"type":"Point","coordinates":[139.76789900000006,35.702038000000073]},"properties":{"OBJECTID":151,"name":"銭形平次碑","lon":139.767899,"lat":35.702038000000002}},{"type":"Feature","id":152,"geometry":{"type":"Point","coordinates":[139.7649540000001,35.684467000000041]},"properties":{"OBJECTID":152,"name":"さわり大黒","lon":139.76495399999999,"lat":35.684466999999998}},{"type":"Feature","id":153,"geometry":{"type":"Point","coordinates":[139.7586520000001,35.700310000000059]},"properties":{"OBJECTID":153,"name":"女坂","lon":139.75865200000001,"lat":35.700310000000002}},{"type":"Feature","id":154,"geometry":{"type":"Point","coordinates":[139.76669300000003,35.67704800000007]},"properties":{"OBJECTID":154,"name":"鍛冶橋跡","lon":139.766693,"lat":35.677047999999999}},{"type":"Feature","id":155,"geometry":{"type":"Point","coordinates":[139.77650500000004,35.700378000000057]},"properties":{"OBJECTID":155,"name":"和泉町ポンプ所","lon":139.77650499999999,"lat":35.700378000000001}},{"type":"Feature","id":156,"geometry":{"type":"Point","coordinates":[139.73231500000009,35.682487000000037]},"properties":{"OBJECTID":156,"name":"尾張名古屋藩徳川家屋敷跡","lon":139.732315,"lat":35.682487000000002}},{"type":"Feature","id":157,"geometry":{"type":"Point","coordinates":[139.73487900000009,35.681175000000053]},"properties":{"OBJECTID":157,"name":"近江彦根藩井伊家屋敷跡","lon":139.73487900000001,"lat":35.681175000000003}},{"type":"Feature","id":158,"geometry":{"type":"Point","coordinates":[139.74775700000009,35.669914000000063]},"properties":{"OBJECTID":158,"name":"江戸城外堀跡 溜池櫓台","lon":139.74775700000001,"lat":35.669913999999999}},{"type":"Feature","id":159,"geometry":{"type":"Point","coordinates":[139.760223,35.697392000000036]},"properties":{"OBJECTID":159,"name":"夏目漱石の碑","lon":139.760223,"lat":35.697392000000001}},{"type":"Feature","id":160,"geometry":{"type":"Point","coordinates":[139.73321500000009,35.685982000000081]},"properties":{"OBJECTID":160,"name":"心法寺","lon":139.733215,"lat":35.685982000000003}},{"type":"Feature","id":161,"geometry":{"type":"Point","coordinates":[139.73930400000006,35.677944000000082]},"properties":{"OBJECTID":161,"name":"華族女学校遺蹟碑","lon":139.739304,"lat":35.677943999999997}},{"type":"Feature","id":162,"geometry":{"type":"Point","coordinates":[139.74525500000004,35.68948000000006]},"properties":{"OBJECTID":162,"name":"水道橋","lon":139.74525499999999,"lat":35.689480000000003}},{"type":"Feature","id":163,"geometry":{"type":"Point","coordinates":[139.74971000000005,35.694115000000068]},"properties":{"OBJECTID":163,"name":"昭和天皇御野立所","lon":139.74970999999999,"lat":35.694114999999996}},{"type":"Feature","id":164,"geometry":{"type":"Point","coordinates":[139.75973500000009,35.690678000000048]},"properties":{"OBJECTID":164,"name":"一橋徳川家屋敷跡","lon":139.75973500000001,"lat":35.690677999999998}},{"type":"Feature","id":165,"geometry":{"type":"Point","coordinates":[139.75607300000001,35.67112700000007]},"properties":{"OBJECTID":165,"name":"烏帽子石","lon":139.75607299999999,"lat":35.671126999999998}},{"type":"Feature","id":166,"geometry":{"type":"Point","coordinates":[139.76266500000008,35.698093000000085]},"properties":{"OBJECTID":166,"name":"小栗上野介屋敷跡","lon":139.762665,"lat":35.698093}},{"type":"Feature","id":167,"geometry":{"type":"Point","coordinates":[139.76011700000004,35.689461000000051]},"properties":{"OBJECTID":167,"name":"震災いちょう","lon":139.76011700000001,"lat":35.689461000000001}},{"type":"Feature","id":168,"geometry":{"type":"Point","coordinates":[139.76724200000001,35.681366000000082]},"properties":{"OBJECTID":168,"name":"浜口首相遭難現場","lon":139.76724200000001,"lat":35.681365999999997}},{"type":"Feature","id":169,"geometry":{"type":"Point","coordinates":[139.759232,35.691078000000061]},"properties":{"OBJECTID":169,"name":"一ツ橋門石垣跡","lon":139.759232,"lat":35.691077999999997}},{"type":"Feature","id":170,"geometry":{"type":"Point","coordinates":[139.757385,35.692051000000049]},"properties":{"OBJECTID":170,"name":"一ツ橋","lon":139.757385,"lat":35.692050999999999}},{"type":"Feature","id":171,"geometry":{"type":"Point","coordinates":[139.753647,35.694004000000064]},"properties":{"OBJECTID":171,"name":"大隈重信侯 雉子橋邸跡","lon":139.753647,"lat":35.694004}},{"type":"Feature","id":172,"geometry":{"type":"Point","coordinates":[139.75444000000005,35.675652000000071]},"properties":{"OBJECTID":172,"name":"米沢藩上杉家江戸藩邸跡 碑","lon":139.75443999999999,"lat":35.675651999999999}},{"type":"Feature","id":173,"geometry":{"type":"Point","coordinates":[139.74949600000002,35.698620000000062]},"properties":{"OBJECTID":173,"name":"北辰社牧場跡碑","lon":139.74949599999999,"lat":35.698619999999998}},{"type":"Feature","id":174,"geometry":{"type":"Point","coordinates":[139.76625100000001,35.69843300000008]},"properties":{"OBJECTID":174,"name":"幽霊坂","lon":139.76625100000001,"lat":35.698433000000001}},{"type":"Feature","id":175,"geometry":{"type":"Point","coordinates":[139.761887,35.694267000000082]},"properties":{"OBJECTID":175,"name":"五十稲荷神社","lon":139.761887,"lat":35.694267000000004}},{"type":"Feature","id":176,"geometry":{"type":"Point","coordinates":[139.7495120000001,35.692238000000089]},"properties":{"OBJECTID":176,"name":"北白川宮能久親王銅像","lon":139.74951200000001,"lat":35.692238000000003}},{"type":"Feature","id":177,"geometry":{"type":"Point","coordinates":[139.76284800000008,35.693535000000054]},"properties":{"OBJECTID":177,"name":"豊川稲荷","lon":139.76284799999999,"lat":35.693534999999997}},{"type":"Feature","id":178,"geometry":{"type":"Point","coordinates":[139.76809700000001,35.696022000000085]},"properties":{"OBJECTID":178,"name":"出世稲荷神社","lon":139.76809700000001,"lat":35.696021999999999}},{"type":"Feature","id":179,"geometry":{"type":"Point","coordinates":[139.76705900000002,35.701412000000062]},"properties":{"OBJECTID":179,"name":"糀室 附 明治37年糀室之図","lon":139.76705899999999,"lat":35.701411999999998}},{"type":"Feature","id":180,"geometry":{"type":"Point","coordinates":[139.76763900000003,35.702438000000086]},"properties":{"OBJECTID":180,"name":"浦安稲荷神社","lon":139.767639,"lat":35.702438000000001}},{"type":"Feature","id":181,"geometry":{"type":"Point","coordinates":[139.76803600000005,35.702435000000037]},"properties":{"OBJECTID":181,"name":"末広稲荷神社","lon":139.768036,"lat":35.702435000000001}},{"type":"Feature","id":182,"geometry":{"type":"Point","coordinates":[139.757339,35.672077000000058]},"properties":{"OBJECTID":182,"name":"鹿鳴館跡","lon":139.757339,"lat":35.672077000000002}},{"type":"Feature","id":183,"geometry":{"type":"Point","coordinates":[139.74823000000004,35.699924000000067]},"properties":{"OBJECTID":183,"name":"新徴組屯所跡","lon":139.74823000000001,"lat":35.699924000000003}},{"type":"Feature","id":184,"geometry":{"type":"Point","coordinates":[139.765625,35.699268000000075]},"properties":{"OBJECTID":184,"name":"淡路坂","lon":139.765625,"lat":35.699267999999996}},{"type":"Feature","id":185,"geometry":{"type":"Point","coordinates":[139.74971000000005,35.694115000000068]},"properties":{"OBJECTID":185,"name":"弥生慰霊堂","lon":139.74970999999999,"lat":35.694114999999996}},{"type":"Feature","id":186,"geometry":{"type":"Point","coordinates":[139.76460300000008,35.689037000000042]},"properties":{"OBJECTID":186,"name":"神田橋門石垣跡","lon":139.76460299999999,"lat":35.689036999999999}},{"type":"Feature","id":187,"geometry":{"type":"Point","coordinates":[139.74371300000007,35.699986000000081]},"properties":{"OBJECTID":187,"name":"牛込橋","lon":139.74371300000001,"lat":35.699986000000003}},{"type":"Feature","id":188,"geometry":{"type":"Point","coordinates":[139.77200300000004,35.690277000000037]},"properties":{"OBJECTID":188,"name":"山梨中央銀行東京支店","lon":139.77200300000001,"lat":35.690277000000002}},{"type":"Feature","id":189,"geometry":{"type":"Point","coordinates":[139.76789900000006,35.702030000000036]},"properties":{"OBJECTID":189,"name":"力石","lon":139.767899,"lat":35.702030000000001}},{"type":"Feature","id":190,"geometry":{"type":"Point","coordinates":[139.74903900000004,35.673615000000041]},"properties":{"OBJECTID":190,"name":"潮見坂","lon":139.74903900000001,"lat":35.673614999999998}},{"type":"Feature","id":191,"geometry":{"type":"Point","coordinates":[139.76992800000005,35.698589000000084]},"properties":{"OBJECTID":191,"name":"講武稲荷神社","lon":139.76992799999999,"lat":35.698588999999998}},{"type":"Feature","id":192,"geometry":{"type":"Point","coordinates":[139.76303100000007,35.673653000000058]},"properties":{"OBJECTID":192,"name":"フランク永井歌碑","lon":139.76303100000001,"lat":35.673653000000002}},{"type":"Feature","id":193,"geometry":{"type":"Point","coordinates":[139.76393100000007,35.698162000000082]},"properties":{"OBJECTID":193,"name":"法政大学発祥の地碑","lon":139.76393100000001,"lat":35.698162000000004}},{"type":"Feature","id":194,"geometry":{"type":"Point","coordinates":[139.73747300000002,35.686951000000079]},"properties":{"OBJECTID":194,"name":"傳 2","lon":139.73747299999999,"lat":35.686951000000001}},{"type":"Feature","id":195,"geometry":{"type":"Point","coordinates":[139.75195300000007,35.696537000000035]},"properties":{"OBJECTID":195,"name":"滝沢馬琴の硯の井戸跡","lon":139.75195299999999,"lat":35.696536999999999}},{"type":"Feature","id":196,"geometry":{"type":"Point","coordinates":[139.75877400000002,35.692902000000061]},"properties":{"OBJECTID":196,"name":"新島襄誕生地跡","lon":139.75877399999999,"lat":35.692901999999997}},{"type":"Feature","id":197,"geometry":{"type":"Point","coordinates":[139.74775700000009,35.700390000000084]},"properties":{"OBJECTID":197,"name":"日本赤十字社跡","lon":139.74775700000001,"lat":35.700389999999999}},{"type":"Feature","id":198,"geometry":{"type":"Point","coordinates":[139.74830600000007,35.700138000000038]},"properties":{"OBJECTID":198,"name":"甲武鉄道飯田町駅の碑","lon":139.74830600000001,"lat":35.700138000000003}},{"type":"Feature","id":199,"geometry":{"type":"Point","coordinates":[139.74833700000011,35.670578000000035]},"properties":{"OBJECTID":199,"name":"工部大学校阯碑","lon":139.74833699999999,"lat":35.670577999999999}},{"type":"Feature","id":200,"geometry":{"type":"Point","coordinates":[139.74301100000002,35.67501400000009]},"properties":{"OBJECTID":200,"name":"山王坂","lon":139.743011,"lat":35.675013999999997}},{"type":"Feature","id":201,"geometry":{"type":"Point","coordinates":[139.76728090000006,35.701676600000042]},"properties":{"OBJECTID":201,"name":"少彦名命（えびす様）ご尊像","lon":139.7672809,"lat":35.701676599999999}},{"type":"Feature","id":202,"geometry":{"type":"Point","coordinates":[139.76303100000007,35.673653000000058]},"properties":{"OBJECTID":202,"name":"朝日新聞東京本社跡","lon":139.76303100000001,"lat":35.673653000000002}},{"type":"Feature","id":203,"geometry":{"type":"Point","coordinates":[139.76655600000004,35.68995300000006]},"properties":{"OBJECTID":203,"name":"御宿稲荷神社","lon":139.76655600000001,"lat":35.689953000000003}},{"type":"Feature","id":204,"geometry":{"type":"Point","coordinates":[139.76887500000009,35.698357000000044]},"properties":{"OBJECTID":204,"name":"昌平橋","lon":139.76887500000001,"lat":35.698357000000001}},{"type":"Feature","id":205,"geometry":{"type":"Point","coordinates":[139.74067700000001,35.695637000000033]},"properties":{"OBJECTID":205,"name":"アーネスト・サトウゆかりの屋敷跡","lon":139.74067700000001,"lat":35.695636999999998}},{"type":"Feature","id":206,"geometry":{"type":"Point","coordinates":[139.74585000000002,35.671021000000053]},"properties":{"OBJECTID":206,"name":"特許庁","lon":139.74584999999999,"lat":35.671021000000003}},{"type":"Feature","id":207,"geometry":{"type":"Point","coordinates":[139.74772600000006,35.669945000000041]},"properties":{"OBJECTID":207,"name":"江藤新平君遭難遺址碑","lon":139.747726,"lat":35.669944999999998}},{"type":"Feature","id":208,"geometry":{"type":"Point","coordinates":[139.77536000000009,35.696098000000063]},"properties":{"OBJECTID":208,"name":"岩本町馬の水飲広場","lon":139.77536000000001,"lat":35.696097999999999}},{"type":"Feature","id":209,"geometry":{"type":"Point","coordinates":[139.74231000000009,35.691940000000045]},"properties":{"OBJECTID":209,"name":"二七山不動尊","lon":139.74231,"lat":35.691940000000002}},{"type":"Feature","id":210,"geometry":{"type":"Point","coordinates":[139.76847800000007,35.695244000000059]},"properties":{"OBJECTID":210,"name":"神田青果市場発祥の地","lon":139.76847799999999,"lat":35.695244000000002}},{"type":"Feature","id":211,"geometry":{"type":"Point","coordinates":[139.76397700000007,35.698353000000054]},"properties":{"OBJECTID":211,"name":"雁木坂","lon":139.76397700000001,"lat":35.698352999999997}},{"type":"Feature","id":212,"geometry":{"type":"Point","coordinates":[139.77531400000009,35.692356000000075]},"properties":{"OBJECTID":212,"name":"金山神社","lon":139.77531400000001,"lat":35.692355999999997}},{"type":"Feature","id":213,"geometry":{"type":"Point","coordinates":[139.75152600000001,35.675007000000051]},"properties":{"OBJECTID":213,"name":"霞ヶ関跡 碑","lon":139.75152600000001,"lat":35.675007000000001}},{"type":"Feature","id":214,"geometry":{"type":"Point","coordinates":[139.74255400000004,35.69546900000006]},"properties":{"OBJECTID":214,"name":"富士見坂","lon":139.74255400000001,"lat":35.695469000000003}},{"type":"Feature","id":215,"geometry":{"type":"Point","coordinates":[139.76983600000005,35.682896000000085]},"properties":{"OBJECTID":215,"name":"北町奉行所跡","lon":139.769836,"lat":35.682896}},{"type":"Feature","id":216,"geometry":{"type":"Point","coordinates":[139.75096100000007,35.674850000000049]},"properties":{"OBJECTID":216,"name":"霞が関坂","lon":139.75096099999999,"lat":35.674849999999999}},{"type":"Feature","id":217,"geometry":{"type":"Point","coordinates":[139.7531130000001,35.669338000000039]},"properties":{"OBJECTID":217,"name":"樋口一葉生誕の地","lon":139.75311300000001,"lat":35.669338000000003}},{"type":"Feature","id":218,"geometry":{"type":"Point","coordinates":[139.77743500000008,35.699017000000083]},"properties":{"OBJECTID":218,"name":"金綱稲荷神社","lon":139.777435,"lat":35.699016999999998}},{"type":"Feature","id":219,"geometry":{"type":"Point","coordinates":[139.76748700000007,35.702068000000054]},"properties":{"OBJECTID":219,"name":"小舟町八雲神社","lon":139.76748699999999,"lat":35.702067999999997}},{"type":"Feature","id":220,"geometry":{"type":"Point","coordinates":[139.75366200000008,35.674438000000066]},"properties":{"OBJECTID":220,"name":"大岡越前忠相屋敷跡","lon":139.75366199999999,"lat":35.674438000000002}},{"type":"Feature","id":221,"geometry":{"type":"Point","coordinates":[139.7448730000001,35.70237700000007]},"properties":{"OBJECTID":221,"name":"飯田橋","lon":139.74487300000001,"lat":35.702376999999998}},{"type":"Feature","id":222,"geometry":{"type":"Point","coordinates":[139.77098430000001,35.697172900000055]},"properties":{"OBJECTID":222,"name":"万世橋","lon":139.77098430000001,"lat":35.697172899999998}},{"type":"Feature","id":223,"geometry":{"type":"Point","coordinates":[139.76254300000005,35.69087200000007]},"properties":{"OBJECTID":223,"name":"錦橋","lon":139.76254299999999,"lat":35.690871999999999}},{"type":"Feature","id":224,"geometry":{"type":"Point","coordinates":[139.76493800000003,35.67751700000008]},"properties":{"OBJECTID":224,"name":"東京府庁舎跡","lon":139.764938,"lat":35.677517000000002}},{"type":"Feature","id":225,"geometry":{"type":"Point","coordinates":[139.768463,35.695244000000059]},"properties":{"OBJECTID":225,"name":"豊潤稲荷神社","lon":139.768463,"lat":35.695244000000002}},{"type":"Feature","id":226,"geometry":{"type":"Point","coordinates":[139.776749,35.693184000000088]},"properties":{"OBJECTID":226,"name":"お玉ヶ池種痘所","lon":139.776749,"lat":35.693184000000002}},{"type":"Feature","id":227,"geometry":{"type":"Point","coordinates":[139.769363,35.693325000000073]},"properties":{"OBJECTID":227,"name":"松尾神社","lon":139.769363,"lat":35.693325000000002}},{"type":"Feature","id":228,"geometry":{"type":"Point","coordinates":[139.779358,35.699837000000059]},"properties":{"OBJECTID":228,"name":"金綱稲荷神社","lon":139.779358,"lat":35.699837000000002}},{"type":"Feature","id":229,"geometry":{"type":"Point","coordinates":[139.75251800000001,35.698025000000086]},"properties":{"OBJECTID":229,"name":"傳蔵地蔵尊","lon":139.75251800000001,"lat":35.698025000000001}},{"type":"Feature","id":230,"geometry":{"type":"Point","coordinates":[139.76307700000007,35.699989000000073]},"properties":{"OBJECTID":230,"name":"お茶の水 碑","lon":139.76307700000001,"lat":35.699989000000002}},{"type":"Feature","id":231,"geometry":{"type":"Point","coordinates":[139.750092,35.698318000000086]},"properties":{"OBJECTID":231,"name":"台所町跡記念碑","lon":139.750092,"lat":35.698318}},{"type":"Feature","id":232,"geometry":{"type":"Point","coordinates":[139.77613800000006,35.699242000000083]},"properties":{"OBJECTID":232,"name":"ものづくり館 by YKK","lon":139.776138,"lat":35.699241999999998}},{"type":"Feature","id":233,"geometry":{"type":"Point","coordinates":[139.7751770000001,35.69640000000004]},"properties":{"OBJECTID":233,"name":"柳原土手跡","lon":139.77517700000001,"lat":35.696399999999997}},{"type":"Feature","id":234,"geometry":{"type":"Point","coordinates":[139.767563,35.702118000000041]},"properties":{"OBJECTID":234,"name":"大伝馬町八雲神社","lon":139.767563,"lat":35.702117999999999}},{"type":"Feature","id":235,"geometry":{"type":"Point","coordinates":[139.75552400000004,35.690197000000069]},"properties":{"OBJECTID":235,"name":"竹橋御門跡","lon":139.75552400000001,"lat":35.690196999999998}},{"type":"Feature","id":236,"geometry":{"type":"Point","coordinates":[139.76782200000002,35.693314000000044]},"properties":{"OBJECTID":236,"name":"真徳稲荷神社","lon":139.767822,"lat":35.693314000000001}},{"type":"Feature","id":237,"geometry":{"type":"Point","coordinates":[139.74232500000005,35.697823000000085]},"properties":{"OBJECTID":237,"name":"日本赤十字社発祥の地","lon":139.74232499999999,"lat":35.697823}},{"type":"Feature","id":238,"geometry":{"type":"Point","coordinates":[139.753647,35.694004000000064]},"properties":{"OBJECTID":238,"name":"江戸幕府蔵屋敷の礎石","lon":139.753647,"lat":35.694004}},{"type":"Feature","id":239,"geometry":{"type":"Point","coordinates":[139.76338200000009,35.68553200000008]},"properties":{"OBJECTID":239,"name":"日本歯科大学発祥の地","lon":139.76338200000001,"lat":35.685532000000002}},{"type":"Feature","id":240,"geometry":{"type":"Point","coordinates":[139.7476650000001,35.677128000000039]},"properties":{"OBJECTID":240,"name":"電子基準点 千代田","lon":139.74766500000001,"lat":35.677128000000003}},{"type":"Feature","id":241,"geometry":{"type":"Point","coordinates":[139.775848,35.69662500000004]},"properties":{"OBJECTID":241,"name":"既製服問屋街発祥の地","lon":139.775848,"lat":35.696624999999997}},{"type":"Feature","id":242,"geometry":{"type":"Point","coordinates":[139.76609800000006,35.698448000000042]},"properties":{"OBJECTID":242,"name":"軍艦山","lon":139.766098,"lat":35.698447999999999}},{"type":"Feature","id":243,"geometry":{"type":"Point","coordinates":[139.76777600000003,35.702724000000046]},"properties":{"OBJECTID":243,"name":"随神門","lon":139.767776,"lat":35.702724000000003}},{"type":"Feature","id":244,"geometry":{"type":"Point","coordinates":[139.76327500000002,35.699051000000054]},"properties":{"OBJECTID":244,"name":"佐々木隆興像","lon":139.76327499999999,"lat":35.699050999999997}},{"type":"Feature","id":245,"geometry":{"type":"Point","coordinates":[139.77934300000004,35.697746000000052]},"properties":{"OBJECTID":245,"name":"草分稲荷神社","lon":139.77934300000001,"lat":35.697746000000002}},{"type":"Feature","id":246,"geometry":{"type":"Point","coordinates":[139.77003500000001,35.692467000000079]},"properties":{"OBJECTID":246,"name":"大柳稲荷神社","lon":139.77003500000001,"lat":35.692467000000001}},{"type":"Feature","id":247,"geometry":{"type":"Point","coordinates":[139.74263000000008,35.687405000000069]},"properties":{"OBJECTID":247,"name":"東京音楽大学発祥の地","lon":139.74262999999999,"lat":35.687404999999998}},{"type":"Feature","id":248,"geometry":{"type":"Point","coordinates":[139.75146500000005,35.691776000000061]},"properties":{"OBJECTID":248,"name":"北の丸公園露場","lon":139.751465,"lat":35.691775999999997}},{"type":"Feature","id":249,"geometry":{"type":"Point","coordinates":[139.76789900000006,35.702038000000073]},"properties":{"OBJECTID":249,"name":"水野年方顕彰碑","lon":139.767899,"lat":35.702038000000002}},{"type":"Feature","id":250,"geometry":{"type":"Point","coordinates":[139.74209600000006,35.687786000000074]},"properties":{"OBJECTID":250,"name":"袖摺坂","lon":139.742096,"lat":35.687786000000003}},{"type":"Feature","id":251,"geometry":{"type":"Point","coordinates":[139.77183500000001,35.690536000000066]},"properties":{"OBJECTID":251,"name":"今川橋由来碑","lon":139.77183500000001,"lat":35.690536000000002}},{"type":"Feature","id":252,"geometry":{"type":"Point","coordinates":[139.76475500000004,35.689800000000048]},"properties":{"OBJECTID":252,"name":"物揚場跡","lon":139.76475500000001,"lat":35.689799999999998}},{"type":"Feature","id":253,"geometry":{"type":"Point","coordinates":[139.74516300000005,35.699612000000059]},"properties":{"OBJECTID":253,"name":"桐生稲荷神社","lon":139.74516299999999,"lat":35.699612000000002}},{"type":"Feature","id":254,"geometry":{"type":"Point","coordinates":[139.76443500000005,35.698723000000086]},"properties":{"OBJECTID":254,"name":"池田坂","lon":139.76443499999999,"lat":35.698723000000001}},{"type":"Feature","id":255,"geometry":{"type":"Point","coordinates":[139.76516700000002,35.698410000000081]},"properties":{"OBJECTID":255,"name":"紅梅坂","lon":139.76516699999999,"lat":35.698410000000003}},{"type":"Feature","id":256,"geometry":{"type":"Point","coordinates":[139.757339,35.696907000000067]},"properties":{"OBJECTID":256,"name":"開徳稲荷神社","lon":139.757339,"lat":35.696907000000003}},{"type":"Feature","id":257,"geometry":{"type":"Point","coordinates":[139.76570560000005,35.702022900000088]},"properties":{"OBJECTID":257,"name":"御社殿（国登録有形文化財）","lon":139.76570559999999,"lat":35.702022900000003}},{"type":"Feature","id":258,"geometry":{"type":"Point","coordinates":[139.75798000000009,35.701153000000033]},"properties":{"OBJECTID":258,"name":"皀角坂","lon":139.75798,"lat":35.701152999999998}},{"type":"Feature","id":259,"geometry":{"type":"Point","coordinates":[139.76351900000009,35.676945000000046]},"properties":{"OBJECTID":259,"name":"土佐藩上屋敷跡","lon":139.763519,"lat":35.676945000000003}},{"type":"Feature","id":260,"geometry":{"type":"Point","coordinates":[139.74772600000006,35.669945000000041]},"properties":{"OBJECTID":260,"name":"江藤新平君遭難遺址碑","lon":139.747726,"lat":35.669944999999998}},{"type":"Feature","id":261,"geometry":{"type":"Point","coordinates":[139.76789900000006,35.702038000000073]},"properties":{"OBJECTID":261,"name":"角田竹冷の句碑","lon":139.767899,"lat":35.702038000000002}},{"type":"Feature","id":262,"geometry":{"type":"Point","coordinates":[139.765625,35.688698000000045]},"properties":{"OBJECTID":262,"name":"庄内藩酒井家神田橋上屋敷跡","lon":139.765625,"lat":35.688698000000002}},{"type":"Feature","id":263,"geometry":{"type":"Point","coordinates":[139.76808200000005,35.696037000000047]},"properties":{"OBJECTID":263,"name":"延壽稲荷神社","lon":139.76808199999999,"lat":35.696036999999997}},{"type":"Feature","id":264,"geometry":{"type":"Point","coordinates":[139.75103799999999,35.69522500000005]},"properties":{"OBJECTID":264,"name":"蕃書調所跡","lon":139.75103799999999,"lat":35.695225000000001}},{"type":"Feature","id":265,"geometry":{"type":"Point","coordinates":[139.75596600000006,35.696762000000035]},"properties":{"OBJECTID":265,"name":"愛全地蔵尊","lon":139.755966,"lat":35.696762}},{"type":"Feature","id":266,"geometry":{"type":"Point","coordinates":[139.74168400000008,35.687107000000083]},"properties":{"OBJECTID":266,"name":"永井坂","lon":139.74168399999999,"lat":35.687106999999997}},{"type":"Feature","id":267,"geometry":{"type":"Point","coordinates":[139.77902200000005,35.698025000000086]},"properties":{"OBJECTID":267,"name":"ラジオ体操会発祥の地","lon":139.779022,"lat":35.698025000000001}},{"type":"Feature","id":268,"geometry":{"type":"Point","coordinates":[139.76777600000003,35.702724000000046]},"properties":{"OBJECTID":268,"name":"明治天皇御臨幸記念碑","lon":139.767776,"lat":35.702724000000003}},{"type":"Feature","id":269,"geometry":{"type":"Point","coordinates":[139.77581800000007,35.69430200000005]},"properties":{"OBJECTID":269,"name":"お玉ヶ池跡","lon":139.77581799999999,"lat":35.694302}},{"type":"Feature","id":270,"geometry":{"type":"Point","coordinates":[139.74751300000003,35.700996000000089]},"properties":{"OBJECTID":270,"name":"國學院大學開校の地","lon":139.747513,"lat":35.700996000000004}},{"type":"Feature","id":271,"geometry":{"type":"Point","coordinates":[139.77548200000001,35.696922000000086]},"properties":{"OBJECTID":271,"name":"和泉橋","lon":139.77548200000001,"lat":35.696922000000001}},{"type":"Feature","id":272,"geometry":{"type":"Point","coordinates":[139.74702500000001,35.701172000000042]},"properties":{"OBJECTID":272,"name":"日本大学発祥の地","lon":139.74702500000001,"lat":35.701172}},{"type":"Feature","id":273,"geometry":{"type":"Point","coordinates":[139.75300600000003,35.695679000000041]},"properties":{"OBJECTID":273,"name":"俎橋","lon":139.753006,"lat":35.695678999999998}},{"type":"Feature","id":274,"geometry":{"type":"Point","coordinates":[139.77632100000005,35.693882000000087]},"properties":{"OBJECTID":274,"name":"繁栄お玉稲荷神社","lon":139.776321,"lat":35.693882000000002}},{"type":"Feature","id":275,"geometry":{"type":"Point","coordinates":[139.75871300000006,35.69227200000006]},"properties":{"OBJECTID":275,"name":"東京外国語学校発祥の地","lon":139.758713,"lat":35.692272000000003}},{"type":"Feature","id":276,"geometry":{"type":"Point","coordinates":[139.74723800000004,35.701061000000038]},"properties":{"OBJECTID":276,"name":"東京府立第四中学校発祥の地","lon":139.74723800000001,"lat":35.701061000000003}},{"type":"Feature","id":277,"geometry":{"type":"Point","coordinates":[139.76712000000009,35.702332000000069]},"properties":{"OBJECTID":277,"name":"大伝馬町八雲神社 鉄製天水桶","lon":139.76712000000001,"lat":35.702331999999998}},{"type":"Feature","id":278,"geometry":{"type":"Point","coordinates":[139.77447500000005,35.702259000000083]},"properties":{"OBJECTID":278,"name":"だいこく様尊像","lon":139.774475,"lat":35.702258999999998}},{"type":"Feature","id":279,"geometry":{"type":"Point","coordinates":[139.75869800000009,35.692883000000052]},"properties":{"OBJECTID":279,"name":"東京大学発祥の地 碑","lon":139.75869800000001,"lat":35.692883000000002}},{"type":"Feature","id":280,"geometry":{"type":"Point","coordinates":[139.75762900000007,35.700100000000077]},"properties":{"OBJECTID":280,"name":"ペンキ絵発祥の地 (キカイ湯跡)","lon":139.75762900000001,"lat":35.700099999999999}},{"type":"Feature","id":281,"geometry":{"type":"Point","coordinates":[139.764725,35.695545000000038]},"properties":{"OBJECTID":281,"name":"幸德稲荷神社","lon":139.764725,"lat":35.695545000000003}},{"type":"Feature","id":282,"geometry":{"type":"Point","coordinates":[139.74310300000002,35.697601000000077]},"properties":{"OBJECTID":282,"name":"与謝野鉄幹晶子居住跡","lon":139.74310299999999,"lat":35.697600999999999}},{"type":"Feature","id":283,"geometry":{"type":"Point","coordinates":[139.77523800000006,35.69109300000008]},"properties":{"OBJECTID":283,"name":"神田八丁堀跡","lon":139.775238,"lat":35.691093000000002}},{"type":"Feature","id":284,"geometry":{"type":"Point","coordinates":[139.76284800000008,35.691261000000054]},"properties":{"OBJECTID":284,"name":"学習院(華族学校)開校の地","lon":139.76284799999999,"lat":35.691260999999997}},{"type":"Feature","id":285,"geometry":{"type":"Point","coordinates":[139.766525,35.697159000000056]},"properties":{"OBJECTID":285,"name":"新坂","lon":139.766525,"lat":35.697158999999999}},{"type":"Feature","id":286,"geometry":{"type":"Point","coordinates":[139.73947100000009,35.678905000000043]},"properties":{"OBJECTID":286,"name":"黒田清輝旧居跡","lon":139.73947100000001,"lat":35.678905}},{"type":"Feature","id":287,"geometry":{"type":"Point","coordinates":[139.74519300000009,35.680099000000041]},"properties":{"OBJECTID":287,"name":"広告記念像","lon":139.745193,"lat":35.680098999999998}},{"type":"Feature","id":288,"geometry":{"type":"Point","coordinates":[139.74867200000006,35.696449000000086]},"properties":{"OBJECTID":288,"name":"硯友社跡","lon":139.748672,"lat":35.696449000000001}},{"type":"Feature","id":289,"geometry":{"type":"Point","coordinates":[139.76785300000006,35.701923000000079]},"properties":{"OBJECTID":289,"name":"EDOCCO STUDIO","lon":139.767853,"lat":35.701923000000001}},{"type":"Feature","id":290,"geometry":{"type":"Point","coordinates":[139.76800500000002,35.700939000000062]},"properties":{"OBJECTID":290,"name":"明神女坂","lon":139.76800499999999,"lat":35.700938999999998}},{"type":"Feature","id":291,"geometry":{"type":"Point","coordinates":[139.76826500000004,35.699928000000057]},"properties":{"OBJECTID":291,"name":"湯島坂","lon":139.76826500000001,"lat":35.699928}},{"type":"Feature","id":292,"geometry":{"type":"Point","coordinates":[139.74556000000007,35.702461000000085]},"properties":{"OBJECTID":292,"name":"船河原橋","lon":139.74556000000001,"lat":35.702461}},{"type":"Feature","id":293,"geometry":{"type":"Point","coordinates":[139.7457730000001,35.701706000000058]},"properties":{"OBJECTID":293,"name":"東京農業大学開校の地","lon":139.74577300000001,"lat":35.701706000000001}},{"type":"Feature","id":294,"geometry":{"type":"Point","coordinates":[139.74908400000004,35.699020000000075]},"properties":{"OBJECTID":294,"name":"徽章業発祥の地","lon":139.74908400000001,"lat":35.699019999999997}},{"type":"Feature","id":295,"geometry":{"type":"Point","coordinates":[139.74801600000001,35.672203000000081]},"properties":{"OBJECTID":295,"name":"三年坂","lon":139.74801600000001,"lat":35.672203000000003}},{"type":"Feature","id":296,"geometry":{"type":"Point","coordinates":[139.76640300000008,35.685219000000075]},"properties":{"OBJECTID":296,"name":"道三橋跡","lon":139.766403,"lat":35.685218999999996}},{"type":"Feature","id":297,"geometry":{"type":"Point","coordinates":[139.76429700000006,35.68947200000008]},"properties":{"OBJECTID":297,"name":"神田橋","lon":139.764297,"lat":35.689472000000002}},{"type":"Feature","id":298,"geometry":{"type":"Point","coordinates":[139.73968500000001,35.689495000000079]},"properties":{"OBJECTID":298,"name":"網野菊旧居跡","lon":139.73968500000001,"lat":35.689495000000001}},{"type":"Feature","id":299,"geometry":{"type":"Point","coordinates":[139.74513200000001,35.680187000000046]},"properties":{"OBJECTID":299,"name":"渡辺崋山誕生地","lon":139.74513200000001,"lat":35.680186999999997}},{"type":"Feature","id":300,"geometry":{"type":"Point","coordinates":[139.75351000000001,35.694427000000076]},"properties":{"OBJECTID":300,"name":"宝田橋","lon":139.75351000000001,"lat":35.694426999999997}},{"type":"Feature","id":301,"geometry":{"type":"Point","coordinates":[139.73484800000006,35.687279000000046]},"properties":{"OBJECTID":301,"name":"有島武郎・有島生馬・里見弴旧居跡","lon":139.734848,"lat":35.687278999999997}},{"type":"Feature","id":302,"geometry":{"type":"Point","coordinates":[139.74037200000009,35.687168000000042]},"properties":{"OBJECTID":302,"name":"大久保彦左衛門屋敷跡","lon":139.74037200000001,"lat":35.687168}},{"type":"Feature","id":303,"geometry":{"type":"Point","coordinates":[139.76609800000006,35.699078000000043]},"properties":{"OBJECTID":303,"name":"蜀山人 終焉の地","lon":139.766098,"lat":35.699078}},{"type":"Feature","id":304,"geometry":{"type":"Point","coordinates":[139.74087500000007,35.689026000000069]},"properties":{"OBJECTID":304,"name":"池寛旧居跡","lon":139.74087499999999,"lat":35.689025999999998}},{"type":"Feature","id":305,"geometry":{"type":"Point","coordinates":[139.746353,35.691383000000087]},"properties":{"OBJECTID":305,"name":"鍋割坂","lon":139.746353,"lat":35.691383000000002}},{"type":"Feature","id":306,"geometry":{"type":"Point","coordinates":[139.76658600000007,35.688663000000076]},"properties":{"OBJECTID":306,"name":"鎌倉橋","lon":139.76658599999999,"lat":35.688662999999998}},{"type":"Feature","id":307,"geometry":{"type":"Point","coordinates":[139.7568510000001,35.701199000000088]},"properties":{"OBJECTID":307,"name":"小栗坂","lon":139.75685100000001,"lat":35.701199000000003}},{"type":"Feature","id":308,"geometry":{"type":"Point","coordinates":[139.74684100000002,35.679794000000072]},"properties":{"OBJECTID":308,"name":"柳の井","lon":139.74684099999999,"lat":35.679794000000001}},{"type":"Feature","id":309,"geometry":{"type":"Point","coordinates":[139.73463400000003,35.687145000000044]},"properties":{"OBJECTID":309,"name":"泉鏡花旧居跡","lon":139.734634,"lat":35.687145000000001}},{"type":"Feature","id":310,"geometry":{"type":"Point","coordinates":[139.77159100000006,35.700817000000086]},"properties":{"OBJECTID":310,"name":"国学発祥の地碑","lon":139.771591,"lat":35.700817000000001}},{"type":"Feature","id":311,"geometry":{"type":"Point","coordinates":[139.76644900000008,35.686676000000034]},"properties":{"OBJECTID":311,"name":"越前福井藩邸跡","lon":139.76644899999999,"lat":35.686675999999999}},{"type":"Feature","id":312,"geometry":{"type":"Point","coordinates":[139.73596200000009,35.687569000000053]},"properties":{"OBJECTID":312,"name":"明治女学校跡","lon":139.735962,"lat":35.687569000000003}},{"type":"Feature","id":313,"geometry":{"type":"Point","coordinates":[139.75019800000007,35.697865000000036]},"properties":{"OBJECTID":313,"name":"東京女子医科大学発祥の地","lon":139.75019800000001,"lat":35.697865}},{"type":"Feature","id":314,"geometry":{"type":"Point","coordinates":[139.76007100000004,35.674229000000082]},"properties":{"OBJECTID":314,"name":"スモトのおべんと","lon":139.76007100000001,"lat":35.674228999999997}},{"type":"Feature","id":315,"geometry":{"type":"Point","coordinates":[139.76153600000009,35.69152500000007]},"properties":{"OBJECTID":315,"name":"10 over 9 神田錦町","lon":139.76153600000001,"lat":35.691524999999999}},{"type":"Feature","id":316,"geometry":{"type":"Point","coordinates":[139.76435900000001,35.671818000000087]},"properties":{"OBJECTID":316,"name":"銀座歓楽街","lon":139.76435900000001,"lat":35.671818000000002}},{"type":"Feature","id":317,"geometry":{"type":"Point","coordinates":[139.77056900000002,35.664276000000086]},"properties":{"OBJECTID":317,"name":"築地魚河岸","lon":139.77056899999999,"lat":35.664276000000001}},{"type":"Feature","id":318,"geometry":{"type":"Point","coordinates":[139.770355,35.665394000000049]},"properties":{"OBJECTID":318,"name":"築地場外市場","lon":139.770355,"lat":35.665393999999999}},{"type":"Feature","id":319,"geometry":{"type":"Point","coordinates":[139.77227800000003,35.666454000000044]},"properties":{"OBJECTID":319,"name":"築地本願寺","lon":139.772278,"lat":35.666454000000002}},{"type":"Feature","id":320,"geometry":{"type":"Point","coordinates":[139.77450600000009,35.683941000000061]},"properties":{"OBJECTID":320,"name":"日本橋（橋）","lon":139.774506,"lat":35.683940999999997}},{"type":"Feature","id":321,"geometry":{"type":"Point","coordinates":[139.7805330000001,35.684147000000053]},"properties":{"OBJECTID":321,"name":"小網神社","lon":139.78053299999999,"lat":35.684147000000003}},{"type":"Feature","id":322,"geometry":{"type":"Point","coordinates":[139.78506500000003,35.683662000000083]},"properties":{"OBJECTID":322,"name":"水天宮","lon":139.785065,"lat":35.683661999999998}},{"type":"Feature","id":323,"geometry":{"type":"Point","coordinates":[139.763824,35.672138000000075]},"properties":{"OBJECTID":323,"name":"並木通り","lon":139.763824,"lat":35.672137999999997}},{"type":"Feature","id":324,"geometry":{"type":"Point","coordinates":[139.77398700000003,35.688725000000034]},"properties":{"OBJECTID":324,"name":"町年寄喜多村彦右衛門屋敷跡","lon":139.77398700000001,"lat":35.688724999999998}},{"type":"Feature","id":325,"geometry":{"type":"Point","coordinates":[139.772156,35.68418500000007]},"properties":{"OBJECTID":325,"name":"ヤンマー米ギャラリー","lon":139.772156,"lat":35.684184999999999}},{"type":"Feature","id":326,"geometry":{"type":"Point","coordinates":[139.77435300000002,35.687717000000077]},"properties":{"OBJECTID":326,"name":"本町薬問屋発祥の町碑","lon":139.77435299999999,"lat":35.687716999999999}},{"type":"Feature","id":327,"geometry":{"type":"Point","coordinates":[139.76318400000002,35.672520000000077]},"properties":{"OBJECTID":327,"name":"ソニービル","lon":139.763184,"lat":35.672519999999999}},{"type":"Feature","id":328,"geometry":{"type":"Point","coordinates":[139.77491800000007,35.662220000000048]},"properties":{"OBJECTID":328,"name":"勝どき橋","lon":139.77491800000001,"lat":35.662219999999998}},{"type":"Feature","id":329,"geometry":{"type":"Point","coordinates":[139.772919,35.681080000000065]},"properties":{"OBJECTID":329,"name":"日本橋高島屋S.C.","lon":139.772919,"lat":35.681080000000001}},{"type":"Feature","id":330,"geometry":{"type":"Point","coordinates":[139.77264400000001,35.646206000000063]},"properties":{"OBJECTID":330,"name":"晴海埠頭","lon":139.77264400000001,"lat":35.646205999999999}},{"type":"Feature","id":331,"geometry":{"type":"Point","coordinates":[139.77160600000002,35.663502000000051]},"properties":{"OBJECTID":331,"name":"波除稲荷神社","lon":139.77160599999999,"lat":35.663502000000001}},{"type":"Feature","id":332,"geometry":{"type":"Point","coordinates":[139.779312,35.682358000000079]},"properties":{"OBJECTID":332,"name":"東京証券取引所","lon":139.779312,"lat":35.682358000000001}},{"type":"Feature","id":333,"geometry":{"type":"Point","coordinates":[139.78846700000008,35.686829000000046]},"properties":{"OBJECTID":333,"name":"荒汐部屋","lon":139.788467,"lat":35.686829000000003}},{"type":"Feature","id":334,"geometry":{"type":"Point","coordinates":[139.787689,35.676205000000039]},"properties":{"OBJECTID":334,"name":"永代橋","lon":139.787689,"lat":35.676205000000003}},{"type":"Feature","id":335,"geometry":{"type":"Point","coordinates":[139.76611300000002,35.675335000000075]},"properties":{"OBJECTID":335,"name":"まるごと高知","lon":139.76611299999999,"lat":35.675334999999997}},{"type":"Feature","id":336,"geometry":{"type":"Point","coordinates":[139.78355400000009,35.685188000000039]},"properties":{"OBJECTID":336,"name":"甘酒横丁","lon":139.78355400000001,"lat":35.685187999999997}},{"type":"Feature","id":337,"geometry":{"type":"Point","coordinates":[139.76393100000007,35.672020000000089]},"properties":{"OBJECTID":337,"name":"すずらん通り","lon":139.76393100000001,"lat":35.672020000000003}},{"type":"Feature","id":338,"geometry":{"type":"Point","coordinates":[139.76875300000006,35.653610000000072]},"properties":{"OBJECTID":338,"name":"豊海水産埠頭","lon":139.768753,"lat":35.65361}},{"type":"Feature","id":339,"geometry":{"type":"Point","coordinates":[139.76266500000008,35.668583000000069]},"properties":{"OBJECTID":339,"name":"ヤマハホール","lon":139.762665,"lat":35.668582999999998}},{"type":"Feature","id":340,"geometry":{"type":"Point","coordinates":[139.77677900000003,35.668301000000042]},"properties":{"OBJECTID":340,"name":"カトリック築地教会","lon":139.776779,"lat":35.668301}},{"type":"Feature","id":341,"geometry":{"type":"Point","coordinates":[139.76805100000001,35.669758000000058]},"properties":{"OBJECTID":341,"name":"歌舞伎座タワー","lon":139.76805100000001,"lat":35.669758000000002}},{"type":"Feature","id":342,"geometry":{"type":"Point","coordinates":[139.77250700000002,35.686817000000076]},"properties":{"OBJECTID":342,"name":"三井住友信託銀行 東京中央支店","lon":139.77250699999999,"lat":35.686816999999998}},{"type":"Feature","id":343,"geometry":{"type":"Point","coordinates":[139.77415500000006,35.68600100000009]},"properties":{"OBJECTID":343,"name":"ライオン像","lon":139.77415500000001,"lat":35.686000999999997}},{"type":"Feature","id":344,"geometry":{"type":"Point","coordinates":[139.77441400000009,35.687305000000038]},"properties":{"OBJECTID":344,"name":"福徳神社","lon":139.77441400000001,"lat":35.687305000000002}},{"type":"Feature","id":345,"geometry":{"type":"Point","coordinates":[139.76385500000004,35.670250000000067]},"properties":{"OBJECTID":345,"name":"みゆき通り","lon":139.76385500000001,"lat":35.670250000000003}},{"type":"Feature","id":346,"geometry":{"type":"Point","coordinates":[139.76246600000002,35.669708000000071]},"properties":{"OBJECTID":346,"name":"ギンザ グラフィックギャラリー","lon":139.76246599999999,"lat":35.669708}},{"type":"Feature","id":347,"geometry":{"type":"Point","coordinates":[139.78321800000003,35.668045000000063]},"properties":{"OBJECTID":347,"name":"住吉神社","lon":139.78321800000001,"lat":35.668044999999999}},{"type":"Feature","id":348,"geometry":{"type":"Point","coordinates":[139.76957700000003,35.675312000000076]},"properties":{"OBJECTID":348,"name":"LIXIL ギャラリー","lon":139.769577,"lat":35.675311999999998}},{"type":"Feature","id":349,"geometry":{"type":"Point","coordinates":[139.76248200000009,35.672195000000045]},"properties":{"OBJECTID":349,"name":"ロッテ免税店 銀座店","lon":139.76248200000001,"lat":35.672195000000002}},{"type":"Feature","id":350,"geometry":{"type":"Point","coordinates":[139.77446000000009,35.684002000000078]},"properties":{"OBJECTID":350,"name":"麒麟像","lon":139.77446,"lat":35.684002}},{"type":"Feature","id":351,"geometry":{"type":"Point","coordinates":[139.76718100000005,35.675743000000068]},"properties":{"OBJECTID":351,"name":"伏見稲荷神社","lon":139.76718099999999,"lat":35.675742999999997}},{"type":"Feature","id":352,"geometry":{"type":"Point","coordinates":[139.78306600000008,35.657543000000089]},"properties":{"OBJECTID":352,"name":"晴海トリトンスクエア","lon":139.78306599999999,"lat":35.657542999999997}},{"type":"Feature","id":353,"geometry":{"type":"Point","coordinates":[139.78262300000006,35.685692000000074]},"properties":{"OBJECTID":353,"name":"大観音寺","lon":139.782623,"lat":35.685692000000003}},{"type":"Feature","id":354,"geometry":{"type":"Point","coordinates":[139.7789150000001,35.681160000000034]},"properties":{"OBJECTID":354,"name":"日枝神社日本橋摂社","lon":139.77891500000001,"lat":35.681159999999998}},{"type":"Feature","id":355,"geometry":{"type":"Point","coordinates":[139.76307700000007,35.668945000000065]},"properties":{"OBJECTID":355,"name":"ニコラス・g・ハイエック センター","lon":139.76307700000001,"lat":35.668945000000001}},{"type":"Feature","id":356,"geometry":{"type":"Point","coordinates":[139.7917940000001,35.682472000000075]},"properties":{"OBJECTID":356,"name":"清洲橋","lon":139.79179400000001,"lat":35.682471999999997}},{"type":"Feature","id":357,"geometry":{"type":"Point","coordinates":[139.78312700000004,35.68535600000007]},"properties":{"OBJECTID":357,"name":"人形町 からくり時計台","lon":139.78312700000001,"lat":35.685355999999999}},{"type":"Feature","id":358,"geometry":{"type":"Point","coordinates":[139.77417000000003,35.686718000000042]},"properties":{"OBJECTID":358,"name":"日本橋三井ホール","lon":139.77417,"lat":35.686717999999999}},{"type":"Feature","id":359,"geometry":{"type":"Point","coordinates":[139.77270500000009,35.69035000000008]},"properties":{"OBJECTID":359,"name":"丸石ヒ?ルテ?ィンク?","lon":139.772705,"lat":35.690350000000002}},{"type":"Feature","id":360,"geometry":{"type":"Point","coordinates":[139.76969900000006,35.665340000000072]},"properties":{"OBJECTID":360,"name":"築地にっぽん漁港市場","lon":139.769699,"lat":35.66534}},{"type":"Feature","id":361,"geometry":{"type":"Point","coordinates":[139.77478000000008,35.687256000000048]},"properties":{"OBJECTID":361,"name":"薬祖神社","lon":139.77477999999999,"lat":35.687255999999998}},{"type":"Feature","id":362,"geometry":{"type":"Point","coordinates":[139.76939400000003,35.663376000000085]},"properties":{"OBJECTID":362,"name":"トーキョーズ キッチン","lon":139.76939400000001,"lat":35.663376}},{"type":"Feature","id":363,"geometry":{"type":"Point","coordinates":[139.7612610000001,35.66787000000005]},"properties":{"OBJECTID":363,"name":"GINZA TIMELESS 8","lon":139.76126099999999,"lat":35.667870000000001}},{"type":"Feature","id":364,"geometry":{"type":"Point","coordinates":[139.77583300000003,35.667507000000057]},"properties":{"OBJECTID":364,"name":"トイスラー記念館","lon":139.77583300000001,"lat":35.667507000000001}},{"type":"Feature","id":365,"geometry":{"type":"Point","coordinates":[139.75889600000005,35.668720000000064]},"properties":{"OBJECTID":365,"name":"静岡新聞・静岡放送 東京支社","lon":139.75889599999999,"lat":35.66872}},{"type":"Feature","id":366,"geometry":{"type":"Point","coordinates":[139.77775600000007,35.683884000000035]},"properties":{"OBJECTID":366,"name":"日本橋ダイヤビルディング","lon":139.77775600000001,"lat":35.683883999999999}},{"type":"Feature","id":367,"geometry":{"type":"Point","coordinates":[139.76007100000004,35.670979000000045]},"properties":{"OBJECTID":367,"name":"銀座コリドー街","lon":139.76007100000001,"lat":35.670979000000003}},{"type":"Feature","id":368,"geometry":{"type":"Point","coordinates":[139.78364600000009,35.683895000000064]},"properties":{"OBJECTID":368,"name":"茶の木神社","lon":139.783646,"lat":35.683895}},{"type":"Feature","id":369,"geometry":{"type":"Point","coordinates":[139.75842299999999,35.675636000000054]},"properties":{"OBJECTID":369,"name":"歴史と文化の散歩道 銀座佃島コース","lon":139.75842299999999,"lat":35.675635999999997}},{"type":"Feature","id":370,"geometry":{"type":"Point","coordinates":[139.77084400000001,35.659103000000073]},"properties":{"OBJECTID":370,"name":"築地大橋","lon":139.77084400000001,"lat":35.659103000000002}},{"type":"Feature","id":371,"geometry":{"type":"Point","coordinates":[139.77150000000006,35.688736000000063]},"properties":{"OBJECTID":371,"name":"中央区立常盤小学校","lon":139.7715,"lat":35.688735999999999}},{"type":"Feature","id":372,"geometry":{"type":"Point","coordinates":[139.77998400000001,35.672352000000046]},"properties":{"OBJECTID":372,"name":"鉄砲洲稲荷神社","lon":139.77998400000001,"lat":35.672351999999997}},{"type":"Feature","id":373,"geometry":{"type":"Point","coordinates":[139.76561000000004,35.672085000000038]},"properties":{"OBJECTID":373,"name":"教文館・聖書館ビル","lon":139.76561000000001,"lat":35.672085000000003}},{"type":"Feature","id":374,"geometry":{"type":"Point","coordinates":[139.77339200000006,35.685646000000077]},"properties":{"OBJECTID":374,"name":"天女像","lon":139.773392,"lat":35.685645999999998}},{"type":"Feature","id":375,"geometry":{"type":"Point","coordinates":[139.76313800000003,35.672169000000054]},"properties":{"OBJECTID":375,"name":"Ginza Sony Park (銀座ソニーパーク)","lon":139.763138,"lat":35.672168999999997}},{"type":"Feature","id":376,"geometry":{"type":"Point","coordinates":[139.78601100000003,35.692867000000035]},"properties":{"OBJECTID":376,"name":"薬研堀不動院","lon":139.786011,"lat":35.692867}},{"type":"Feature","id":377,"geometry":{"type":"Point","coordinates":[139.7686920000001,35.674332000000049]},"properties":{"OBJECTID":377,"name":"KIRARITO GINZA","lon":139.76869199999999,"lat":35.674332}},{"type":"Feature","id":378,"geometry":{"type":"Point","coordinates":[139.77839700000004,35.683449000000053]},"properties":{"OBJECTID":378,"name":"兜神社","lon":139.77839700000001,"lat":35.683449000000003}},{"type":"Feature","id":379,"geometry":{"type":"Point","coordinates":[139.77957200000003,35.688301000000081]},"properties":{"OBJECTID":379,"name":"椙森神社","lon":139.779572,"lat":35.688301000000003}},{"type":"Feature","id":380,"geometry":{"type":"Point","coordinates":[139.78164700000002,35.687775000000045]},"properties":{"OBJECTID":380,"name":"三光稲荷神社","lon":139.78164699999999,"lat":35.687775000000002}},{"type":"Feature","id":381,"geometry":{"type":"Point","coordinates":[139.76916500000004,35.668373000000088]},"properties":{"OBJECTID":381,"name":"名犬チロリ記念碑","lon":139.76916499999999,"lat":35.668373000000003}},{"type":"Feature","id":382,"geometry":{"type":"Point","coordinates":[139.77696200000003,35.68925500000006]},"properties":{"OBJECTID":382,"name":"宝田恵比寿神社","lon":139.776962,"lat":35.689255000000003}},{"type":"Feature","id":383,"geometry":{"type":"Point","coordinates":[139.78414900000007,35.686756000000059]},"properties":{"OBJECTID":383,"name":"末廣神社","lon":139.78414900000001,"lat":35.686756000000003}},{"type":"Feature","id":384,"geometry":{"type":"Point","coordinates":[139.78662100000008,35.677448000000084]},"properties":{"OBJECTID":384,"name":"豊海橋","lon":139.786621,"lat":35.677447999999998}},{"type":"Feature","id":385,"geometry":{"type":"Point","coordinates":[139.77449000000001,35.684490000000039]},"properties":{"OBJECTID":385,"name":"日本国道路元標","lon":139.77448999999999,"lat":35.684489999999997}},{"type":"Feature","id":386,"geometry":{"type":"Point","coordinates":[139.77806100000009,35.691017000000045]},"properties":{"OBJECTID":386,"name":"新高野山 大安楽寺","lon":139.77806100000001,"lat":35.691017000000002}},{"type":"Feature","id":387,"geometry":{"type":"Point","coordinates":[139.78361500000005,35.666653000000053]},"properties":{"OBJECTID":387,"name":"佃天台地蔵尊","lon":139.783615,"lat":35.666652999999997}},{"type":"Feature","id":388,"geometry":{"type":"Point","coordinates":[139.78335600000003,35.667274000000077]},"properties":{"OBJECTID":388,"name":"佃小橋","lon":139.783356,"lat":35.667273999999999}},{"type":"Feature","id":389,"geometry":{"type":"Point","coordinates":[139.78312700000004,35.674744000000089]},"properties":{"OBJECTID":389,"name":"於岩稲荷神社","lon":139.78312700000001,"lat":35.674743999999997}},{"type":"Feature","id":390,"geometry":{"type":"Point","coordinates":[139.7740940000001,35.685677000000055]},"properties":{"OBJECTID":390,"name":"熈代勝覧","lon":139.77409399999999,"lat":35.685676999999998}},{"type":"Feature","id":391,"geometry":{"type":"Point","coordinates":[139.78279100000009,35.673504000000037]},"properties":{"OBJECTID":391,"name":"中央大橋","lon":139.782791,"lat":35.673504000000001}},{"type":"Feature","id":392,"geometry":{"type":"Point","coordinates":[139.7833710000001,35.666832000000056]},"properties":{"OBJECTID":392,"name":"佃波除稲荷神社","lon":139.78337099999999,"lat":35.666831999999999}},{"type":"Feature","id":393,"geometry":{"type":"Point","coordinates":[139.77185100000008,35.672066000000086]},"properties":{"OBJECTID":393,"name":"鈴木ビル","lon":139.771851,"lat":35.672066000000001}},{"type":"Feature","id":394,"geometry":{"type":"Point","coordinates":[139.76893600000005,35.687710000000038]},"properties":{"OBJECTID":394,"name":"竜閑さくら橋","lon":139.768936,"lat":35.687710000000003}},{"type":"Feature","id":395,"geometry":{"type":"Point","coordinates":[139.7641450000001,35.669472000000042]},"properties":{"OBJECTID":395,"name":"靍護稲荷神社","lon":139.76414500000001,"lat":35.669471999999999}},{"type":"Feature","id":396,"geometry":{"type":"Point","coordinates":[139.77653500000008,35.666622000000075]},"properties":{"OBJECTID":396,"name":"タイムドーム明石","lon":139.776535,"lat":35.666621999999997}},{"type":"Feature","id":397,"geometry":{"type":"Point","coordinates":[139.76539600000001,35.670364000000063]},"properties":{"OBJECTID":397,"name":"あづま稲荷神社","lon":139.76539600000001,"lat":35.670363999999999}},{"type":"Feature","id":398,"geometry":{"type":"Point","coordinates":[139.76577800000007,35.67135600000006]},"properties":{"OBJECTID":398,"name":"銀座出世地蔵尊・三囲神社","lon":139.76577800000001,"lat":35.671356000000003}},{"type":"Feature","id":399,"geometry":{"type":"Point","coordinates":[139.76863100000003,35.667858000000081]},"properties":{"OBJECTID":399,"name":"東銀座東劇ビル","lon":139.768631,"lat":35.667858000000003}},{"type":"Feature","id":400,"geometry":{"type":"Point","coordinates":[139.7778320000001,35.691116000000079]},"properties":{"OBJECTID":400,"name":"伝馬町牢屋敷跡 碑","lon":139.77783199999999,"lat":35.691116000000001}},{"type":"Feature","id":401,"geometry":{"type":"Point","coordinates":[139.7853550000001,35.688206000000037]},"properties":{"OBJECTID":401,"name":"笠間稲荷神社 東京別社","lon":139.78535500000001,"lat":35.688206000000001}},{"type":"Feature","id":402,"geometry":{"type":"Point","coordinates":[139.77766400000007,35.690731000000085]},"properties":{"OBJECTID":402,"name":"身延別院","lon":139.77766399999999,"lat":35.690731}},{"type":"Feature","id":403,"geometry":{"type":"Point","coordinates":[139.78433200000006,35.66439100000008]},"properties":{"OBJECTID":403,"name":"佃大橋","lon":139.78433200000001,"lat":35.664391000000002}},{"type":"Feature","id":404,"geometry":{"type":"Point","coordinates":[139.76451100000008,35.672440000000051]},"properties":{"OBJECTID":404,"name":"宝童稲荷神社","lon":139.764511,"lat":35.672440000000002}},{"type":"Feature","id":405,"geometry":{"type":"Point","coordinates":[139.78218100000004,35.676220000000058]},"properties":{"OBJECTID":405,"name":"越前堀跡","lon":139.78218100000001,"lat":35.676220000000001}},{"type":"Feature","id":406,"geometry":{"type":"Point","coordinates":[139.7890470000001,35.687138000000061]},"properties":{"OBJECTID":406,"name":"清正公寺","lon":139.78904700000001,"lat":35.687137999999997}},{"type":"Feature","id":407,"geometry":{"type":"Point","coordinates":[139.76918000000001,35.674938000000054]},"properties":{"OBJECTID":407,"name":"銀座煉瓦之碑","lon":139.76918000000001,"lat":35.674937999999997}},{"type":"Feature","id":408,"geometry":{"type":"Point","coordinates":[139.77156100000002,35.679550000000063]},"properties":{"OBJECTID":408,"name":"平和の鐘","lon":139.77156099999999,"lat":35.679549999999999}},{"type":"Feature","id":409,"geometry":{"type":"Point","coordinates":[139.78254700000002,35.68553200000008]},"properties":{"OBJECTID":409,"name":"韋駄天尊","lon":139.78254699999999,"lat":35.685532000000002}},{"type":"Feature","id":410,"geometry":{"type":"Point","coordinates":[139.78602599999999,35.68651200000005]},"properties":{"OBJECTID":410,"name":"勧進帳の弁慶像","lon":139.78602599999999,"lat":35.686512}},{"type":"Feature","id":411,"geometry":{"type":"Point","coordinates":[139.76930200000004,35.670254000000057]},"properties":{"OBJECTID":411,"name":"宝珠稲荷神社","lon":139.76930200000001,"lat":35.670254}},{"type":"Feature","id":412,"geometry":{"type":"Point","coordinates":[139.77905300000009,35.67640300000005]},"properties":{"OBJECTID":412,"name":"亀嶋橋","lon":139.779053,"lat":35.676403000000001}},{"type":"Feature","id":413,"geometry":{"type":"Point","coordinates":[139.77475000000004,35.683781000000067]},"properties":{"OBJECTID":413,"name":"日本橋船着場","lon":139.77475000000001,"lat":35.683781000000003}},{"type":"Feature","id":414,"geometry":{"type":"Point","coordinates":[139.77189600000008,35.68563800000004]},"properties":{"OBJECTID":414,"name":"江戸桜通り","lon":139.771896,"lat":35.685637999999997}},{"type":"Feature","id":415,"geometry":{"type":"Point","coordinates":[139.78150900000003,35.672997000000066]},"properties":{"OBJECTID":415,"name":"南高橋","lon":139.781509,"lat":35.672997000000002}},{"type":"Feature","id":416,"geometry":{"type":"Point","coordinates":[139.78605700000003,35.695415000000082]},"properties":{"OBJECTID":416,"name":"初音森神社","lon":139.786057,"lat":35.695414999999997}},{"type":"Feature","id":417,"geometry":{"type":"Point","coordinates":[139.7853550000001,35.684582000000034]},"properties":{"OBJECTID":417,"name":"松島神社","lon":139.78535500000001,"lat":35.684581999999999}},{"type":"Feature","id":418,"geometry":{"type":"Point","coordinates":[139.77710000000002,35.68354400000004]},"properties":{"OBJECTID":418,"name":"郵便発祥の地","lon":139.77709999999999,"lat":35.683543999999998}},{"type":"Feature","id":419,"geometry":{"type":"Point","coordinates":[139.77200300000004,35.671204000000046]},"properties":{"OBJECTID":419,"name":"三吉橋","lon":139.77200300000001,"lat":35.671204000000003}},{"type":"Feature","id":420,"geometry":{"type":"Point","coordinates":[139.76705900000002,35.671261000000072]},"properties":{"OBJECTID":420,"name":"朝日稲荷神社","lon":139.76705899999999,"lat":35.671261000000001}},{"type":"Feature","id":421,"geometry":{"type":"Point","coordinates":[139.771027,35.665619000000049]},"properties":{"OBJECTID":421,"name":"円正寺","lon":139.771027,"lat":35.665619}},{"type":"Feature","id":422,"geometry":{"type":"Point","coordinates":[139.76208500000007,35.672398000000044]},"properties":{"OBJECTID":422,"name":"旧数寄屋橋跡","lon":139.76208500000001,"lat":35.672398000000001}},{"type":"Feature","id":423,"geometry":{"type":"Point","coordinates":[139.7779690000001,35.675068000000067]},"properties":{"OBJECTID":423,"name":"今村幸稲荷神社","lon":139.77796900000001,"lat":35.675068000000003}},{"type":"Feature","id":424,"geometry":{"type":"Point","coordinates":[139.76364100000001,35.664696000000049]},"properties":{"OBJECTID":424,"name":"浜離宮前踏切跡","lon":139.76364100000001,"lat":35.664695999999999}},{"type":"Feature","id":425,"geometry":{"type":"Point","coordinates":[139.76248200000009,35.670818000000054]},"properties":{"OBJECTID":425,"name":"石川啄木歌碑","lon":139.76248200000001,"lat":35.670817999999997}},{"type":"Feature","id":426,"geometry":{"type":"Point","coordinates":[139.7742310000001,35.685596000000089]},"properties":{"OBJECTID":426,"name":"三越駅地下コンコース「熈代勝覧」複製絵巻","lon":139.77423099999999,"lat":35.685595999999997}},{"type":"Feature","id":427,"geometry":{"type":"Point","coordinates":[139.78227200000003,35.682842000000051]},"properties":{"OBJECTID":427,"name":"銀杏八幡宮","lon":139.78227200000001,"lat":35.682842000000001}},{"type":"Feature","id":428,"geometry":{"type":"Point","coordinates":[139.76129200000003,35.671982000000071]},"properties":{"OBJECTID":428,"name":"泰明小学校","lon":139.761292,"lat":35.671982}},{"type":"Feature","id":429,"geometry":{"type":"Point","coordinates":[139.771164,35.671947000000046]},"properties":{"OBJECTID":429,"name":"安平神社","lon":139.771164,"lat":35.671947000000003}},{"type":"Feature","id":430,"geometry":{"type":"Point","coordinates":[139.77650500000004,35.66875500000009]},"properties":{"OBJECTID":430,"name":"ガス街灯柱 (中央区明石町)","lon":139.77650499999999,"lat":35.668754999999997}},{"type":"Feature","id":431,"geometry":{"type":"Point","coordinates":[139.77703900000006,35.690887000000089]},"properties":{"OBJECTID":431,"name":"十思スクエア","lon":139.777039,"lat":35.690886999999996}},{"type":"Feature","id":432,"geometry":{"type":"Point","coordinates":[139.782196,35.684471000000087]},"properties":{"OBJECTID":432,"name":"鯨と海と人形町の碑","lon":139.782196,"lat":35.684471000000002}},{"type":"Feature","id":433,"geometry":{"type":"Point","coordinates":[139.77558900000008,35.667664000000059]},"properties":{"OBJECTID":433,"name":"浅野内匠頭邸跡","lon":139.775589,"lat":35.667664000000002}},{"type":"Feature","id":434,"geometry":{"type":"Point","coordinates":[139.76216100000011,35.66898000000009]},"properties":{"OBJECTID":434,"name":"豊岩稲荷神社","lon":139.76216099999999,"lat":35.668979999999998}},{"type":"Feature","id":435,"geometry":{"type":"Point","coordinates":[139.77644300000009,35.66811800000005]},"properties":{"OBJECTID":435,"name":"築地居留地跡","lon":139.776443,"lat":35.668118}},{"type":"Feature","id":436,"geometry":{"type":"Point","coordinates":[139.76857000000007,35.674824000000058]},"properties":{"OBJECTID":436,"name":"京橋の親柱","lon":139.76857000000001,"lat":35.674824000000001}},{"type":"Feature","id":437,"geometry":{"type":"Point","coordinates":[139.7787320000001,35.676605000000052]},"properties":{"OBJECTID":437,"name":"堀部安兵衛武庸之碑","lon":139.77873199999999,"lat":35.676605000000002}},{"type":"Feature","id":438,"geometry":{"type":"Point","coordinates":[139.78355400000009,35.689919000000089]},"properties":{"OBJECTID":438,"name":"ポルチェリーノ像","lon":139.78355400000001,"lat":35.689919000000003}},{"type":"Feature","id":439,"geometry":{"type":"Point","coordinates":[139.76237500000002,35.672649000000035]},"properties":{"OBJECTID":439,"name":"若い時計台","lon":139.76237499999999,"lat":35.672649}},{"type":"Feature","id":440,"geometry":{"type":"Point","coordinates":[139.770218,35.679729000000066]},"properties":{"OBJECTID":440,"name":"尾台榕堂之碑","lon":139.770218,"lat":35.679729000000002}},{"type":"Feature","id":441,"geometry":{"type":"Point","coordinates":[139.76741000000004,35.701988000000085]},"properties":{"OBJECTID":441,"name":"魚河岸水神社 遥拝所","lon":139.76741000000001,"lat":35.701988}},{"type":"Feature","id":442,"geometry":{"type":"Point","coordinates":[139.77150000000006,35.683434000000034]},"properties":{"OBJECTID":442,"name":"竹久夢二 港屋ゆかりの地記念碑","lon":139.7715,"lat":35.683433999999998}},{"type":"Feature","id":443,"geometry":{"type":"Point","coordinates":[139.77537500000005,35.674892000000057]},"properties":{"OBJECTID":443,"name":"京華スクエア","lon":139.775375,"lat":35.674892}},{"type":"Feature","id":444,"geometry":{"type":"Point","coordinates":[139.76797500000009,35.668991000000062]},"properties":{"OBJECTID":444,"name":"歌舞伎稲荷神社","lon":139.76797500000001,"lat":35.668990999999998}},{"type":"Feature","id":445,"geometry":{"type":"Point","coordinates":[139.77795400000002,35.682011000000045]},"properties":{"OBJECTID":445,"name":"銀行発祥の地","lon":139.77795399999999,"lat":35.682011000000003}},{"type":"Feature","id":446,"geometry":{"type":"Point","coordinates":[139.78273000000002,35.691956000000062]},"properties":{"OBJECTID":446,"name":"馬喰横山駅名由来の碑","lon":139.78272999999999,"lat":35.691955999999998}},{"type":"Feature","id":447,"geometry":{"type":"Point","coordinates":[139.78201300000001,35.686554000000058]},"properties":{"OBJECTID":447,"name":"玄冶店跡 碑","lon":139.78201300000001,"lat":35.686554000000001}},{"type":"Feature","id":448,"geometry":{"type":"Point","coordinates":[139.77203400000008,35.683811000000048]},"properties":{"OBJECTID":448,"name":"日本橋西河岸地蔵寺教会","lon":139.77203399999999,"lat":35.683810999999999}},{"type":"Feature","id":449,"geometry":{"type":"Point","coordinates":[139.77539100000001,35.674892000000057]},"properties":{"OBJECTID":449,"name":"八丁堀与力・同心組屋敷跡","lon":139.77539100000001,"lat":35.674892}},{"type":"Feature","id":450,"geometry":{"type":"Point","coordinates":[139.77430700000002,35.670994000000064]},"properties":{"OBJECTID":450,"name":"新富稲荷神社","lon":139.77430699999999,"lat":35.670994}},{"type":"Feature","id":451,"geometry":{"type":"Point","coordinates":[139.77255200000002,35.678135000000054]},"properties":{"OBJECTID":451,"name":"歌川広重住居跡","lon":139.77255199999999,"lat":35.678134999999997}},{"type":"Feature","id":452,"geometry":{"type":"Point","coordinates":[139.76725800000008,35.660217000000046]},"properties":{"OBJECTID":452,"name":"浜離宮船着場","lon":139.767258,"lat":35.660217000000003}},{"type":"Feature","id":453,"geometry":{"type":"Point","coordinates":[139.771072,35.684391000000062]},"properties":{"OBJECTID":453,"name":"一石橋迷子しらせ石標","lon":139.771072,"lat":35.684390999999998}},{"type":"Feature","id":454,"geometry":{"type":"Point","coordinates":[139.77978500000006,35.677662000000055]},"properties":{"OBJECTID":454,"name":"正一位純子稲荷神社","lon":139.779785,"lat":35.677661999999998}},{"type":"Feature","id":455,"geometry":{"type":"Point","coordinates":[139.76872300000002,35.676037000000065]},"properties":{"OBJECTID":455,"name":"旧「片倉館」 正面玄関メダリオン","lon":139.76872299999999,"lat":35.676037000000001}},{"type":"Feature","id":456,"geometry":{"type":"Point","coordinates":[139.76794400000006,35.673424000000068]},"properties":{"OBJECTID":456,"name":"銀座発祥の地の碑","lon":139.767944,"lat":35.673423999999997}},{"type":"Feature","id":457,"geometry":{"type":"Point","coordinates":[139.77415500000006,35.68118300000009]},"properties":{"OBJECTID":457,"name":"千代田神社","lon":139.77415500000001,"lat":35.681182999999997}},{"type":"Feature","id":458,"geometry":{"type":"Point","coordinates":[139.775711,35.685333000000071]},"properties":{"OBJECTID":458,"name":"三浦按針遺跡","lon":139.775711,"lat":35.685333}},{"type":"Feature","id":459,"geometry":{"type":"Point","coordinates":[139.77594000000011,35.666927000000044]},"properties":{"OBJECTID":459,"name":"慶応義塾発祥の地","lon":139.77593999999999,"lat":35.666927000000001}},{"type":"Feature","id":460,"geometry":{"type":"Point","coordinates":[139.78343200000006,35.665215000000046]},"properties":{"OBJECTID":460,"name":"佃島説教所","lon":139.783432,"lat":35.665215000000003}},{"type":"Feature","id":461,"geometry":{"type":"Point","coordinates":[139.78109700000005,35.663578000000086]},"properties":{"OBJECTID":461,"name":"月島開運観世音","lon":139.78109699999999,"lat":35.663578000000001}},{"type":"Feature","id":462,"geometry":{"type":"Point","coordinates":[139.77404799999999,35.682034000000044]},"properties":{"OBJECTID":462,"name":"東京日本橋タワー","lon":139.77404799999999,"lat":35.682034000000002}},{"type":"Feature","id":463,"geometry":{"type":"Point","coordinates":[139.7870180000001,35.687843000000044]},"properties":{"OBJECTID":463,"name":"笠間稲荷神社 明治座分社","lon":139.78701799999999,"lat":35.687843000000001}},{"type":"Feature","id":464,"geometry":{"type":"Point","coordinates":[139.77346800000009,35.68558500000006]},"properties":{"OBJECTID":464,"name":"明徳稲荷神社","lon":139.77346800000001,"lat":35.685585000000003}},{"type":"Feature","id":465,"geometry":{"type":"Point","coordinates":[139.78141800000003,35.684677000000079]},"properties":{"OBJECTID":465,"name":"西郷隆盛屋敷跡","lon":139.781418,"lat":35.684677000000001}},{"type":"Feature","id":466,"geometry":{"type":"Point","coordinates":[139.78103600000009,35.691208000000074]},"properties":{"OBJECTID":466,"name":"蔦屋重三郎耕書堂跡","lon":139.781036,"lat":35.691208000000003}},{"type":"Feature","id":467,"geometry":{"type":"Point","coordinates":[139.77226300000007,35.668636000000049]},"properties":{"OBJECTID":467,"name":"築地小劇場跡","lon":139.77226300000001,"lat":35.668635999999999}},{"type":"Feature","id":468,"geometry":{"type":"Point","coordinates":[139.77832000000001,35.661217000000079]},"properties":{"OBJECTID":468,"name":"月島川緑の散歩道","lon":139.77832000000001,"lat":35.661217000000001}},{"type":"Feature","id":469,"geometry":{"type":"Point","coordinates":[139.77572600000008,35.668255000000045]},"properties":{"OBJECTID":469,"name":"芥川龍之介生誕の地","lon":139.77572599999999,"lat":35.668255000000002}},{"type":"Feature","id":470,"geometry":{"type":"Point","coordinates":[139.78323399999999,35.67292800000007]},"properties":{"OBJECTID":470,"name":"一等水準点 交無号","lon":139.78323399999999,"lat":35.672927999999999}},{"type":"Feature","id":471,"geometry":{"type":"Point","coordinates":[139.78285200000005,35.671890000000076]},"properties":{"OBJECTID":471,"name":"霊岸島水位観測所","lon":139.78285199999999,"lat":35.671889999999998}},{"type":"Feature","id":472,"geometry":{"type":"Point","coordinates":[139.7872010000001,35.668266000000074]},"properties":{"OBJECTID":472,"name":"日本初の民営洋式造船所発祥の地 碑","lon":139.78720100000001,"lat":35.668266000000003}},{"type":"Feature","id":473,"geometry":{"type":"Point","coordinates":[139.76702900000009,35.666542000000049]},"properties":{"OBJECTID":473,"name":"演舞場稲荷大明神","lon":139.76702900000001,"lat":35.666542}},{"type":"Feature","id":474,"geometry":{"type":"Point","coordinates":[139.760178,35.669296000000088]},"properties":{"OBJECTID":474,"name":"八官神社","lon":139.760178,"lat":35.669296000000003}},{"type":"Feature","id":475,"geometry":{"type":"Point","coordinates":[139.77847300000008,35.666279000000088]},"properties":{"OBJECTID":475,"name":"アメリカ公使館跡","lon":139.77847299999999,"lat":35.666279000000003}},{"type":"Feature","id":476,"geometry":{"type":"Point","coordinates":[139.78289800000005,35.667217000000051]},"properties":{"OBJECTID":476,"name":"森稲荷神社","lon":139.78289799999999,"lat":35.667217000000001}},{"type":"Feature","id":477,"geometry":{"type":"Point","coordinates":[139.774902,35.684341000000074]},"properties":{"OBJECTID":477,"name":"日本橋魚河岸記念碑","lon":139.774902,"lat":35.684341000000003}},{"type":"Feature","id":478,"geometry":{"type":"Point","coordinates":[139.77131700000007,35.683212000000083]},"properties":{"OBJECTID":478,"name":"時をつなぐ","lon":139.77131700000001,"lat":35.683211999999997}},{"type":"Feature","id":479,"geometry":{"type":"Point","coordinates":[139.77507000000003,35.687225000000069]},"properties":{"OBJECTID":479,"name":"古河市兵衛之像","lon":139.77507,"lat":35.687224999999998}},{"type":"Feature","id":480,"geometry":{"type":"Point","coordinates":[139.77847300000008,35.666279000000088]},"properties":{"OBJECTID":480,"name":"指紋研究発祥の地","lon":139.77847299999999,"lat":35.666279000000003}},{"type":"Feature","id":481,"geometry":{"type":"Point","coordinates":[139.76844800000003,35.668316000000061]},"properties":{"OBJECTID":481,"name":"万年橋","lon":139.76844800000001,"lat":35.668315999999997}},{"type":"Feature","id":482,"geometry":{"type":"Point","coordinates":[139.78065500000002,35.662521000000083]},"properties":{"OBJECTID":482,"name":"本芳寺","lon":139.780655,"lat":35.662520999999998}},{"type":"Feature","id":483,"geometry":{"type":"Point","coordinates":[139.77285800000004,35.663231000000053]},"properties":{"OBJECTID":483,"name":"軍艦操練所跡","lon":139.77285800000001,"lat":35.663231000000003}},{"type":"Feature","id":484,"geometry":{"type":"Point","coordinates":[139.779404,35.656754000000035]},"properties":{"OBJECTID":484,"name":"朝潮運河船着場","lon":139.779404,"lat":35.656753999999999}},{"type":"Feature","id":485,"geometry":{"type":"Point","coordinates":[139.7632900000001,35.672832000000085]},"properties":{"OBJECTID":485,"name":"早川徳次像","lon":139.76329000000001,"lat":35.672832}},{"type":"Feature","id":486,"geometry":{"type":"Point","coordinates":[139.77668800000004,35.681259000000068]},"properties":{"OBJECTID":486,"name":"千代田橋","lon":139.77668800000001,"lat":35.681258999999997}},{"type":"Feature","id":487,"geometry":{"type":"Point","coordinates":[139.77990700000009,35.659779000000071]},"properties":{"OBJECTID":487,"name":"大震火災横死追悼之塔","lon":139.77990700000001,"lat":35.659779}},{"type":"Feature","id":488,"geometry":{"type":"Point","coordinates":[139.77314800000011,35.671288000000061]},"properties":{"OBJECTID":488,"name":"救世軍渡来記念の地","lon":139.77314799999999,"lat":35.671287999999997}},{"type":"Feature","id":489,"geometry":{"type":"Point","coordinates":[139.785889,35.678314000000057]},"properties":{"OBJECTID":489,"name":"高尾稲荷神社","lon":139.785889,"lat":35.678314}},{"type":"Feature","id":490,"geometry":{"type":"Point","coordinates":[139.76072700000009,35.668747000000053]},"properties":{"OBJECTID":490,"name":"金春屋敷跡","lon":139.760727,"lat":35.668747000000003}},{"type":"Feature","id":491,"geometry":{"type":"Point","coordinates":[139.77673300000004,35.669292000000041]},"properties":{"OBJECTID":491,"name":"雙葉学園発祥の地","lon":139.77673300000001,"lat":35.669291999999999}},{"type":"Feature","id":492,"geometry":{"type":"Point","coordinates":[139.7768860000001,35.665985000000035]},"properties":{"OBJECTID":492,"name":"シーボルト像","lon":139.77688599999999,"lat":35.665984999999999}},{"type":"Feature","id":493,"geometry":{"type":"Point","coordinates":[139.782196,35.672523000000069]},"properties":{"OBJECTID":493,"name":"江戸港発祥跡","lon":139.782196,"lat":35.672522999999998}},{"type":"Feature","id":494,"geometry":{"type":"Point","coordinates":[139.7714390000001,35.67937900000004]},"properties":{"OBJECTID":494,"name":"ヤン・ヨーステン記念碑","lon":139.77143899999999,"lat":35.679378999999997}},{"type":"Feature","id":495,"geometry":{"type":"Point","coordinates":[139.78244000000007,35.676044000000047]},"properties":{"OBJECTID":495,"name":"霊巌島の碑","lon":139.78244000000001,"lat":35.676043999999997}},{"type":"Feature","id":496,"geometry":{"type":"Point","coordinates":[139.77700800000002,35.682346000000052]},"properties":{"OBJECTID":496,"name":"海運橋石柱","lon":139.777008,"lat":35.682346000000003}},{"type":"Feature","id":497,"geometry":{"type":"Point","coordinates":[139.77510100000006,35.656807000000072]},